lat,classic,architecture,comfort,number_of_levels_basement_excl,interior design,town,price_detail,modern,barn,parquet,garage,yard,landscape,fireplace,patio,living_space_area_basement_excl,sold_in,villa,scenic,building_dimensions,long,minimalist,address,number_of_bathrooms,hotel,suburb,porch,total_number_of_rooms,environment,swimming pool,travel,number_of_bedrooms,gazebo,pool,url,flora,luxury,contemporary,mansion,lot_dimensions,year_sold,month_sold,pavement,old,municipal_assessment,asking_price,final_amount,property_style,backyard_faces,number_of_half_baths,year_of_construction,bathroom_details,bedroom_details,located_on_which_floor_if_condo,ownership,number_of_exterior_parking
45.5545674,0,1,0,1,1,Villeray / St-Michel / Parc-Extension,new_price,1,0,1,0,0,0,0,0,11,488,0,0,11,-73.6162683,1,8021 rue de Bordeaux,2,0,0,0,8,0,0,1,4,0,0,http://duproprio.com//house-for-sale-villeray-st-michel-parc-extension-quebec-en-462822,0,1,1,0,246,2015,8,0,0,,,,,,,,,,,,
45.6115868,0,1,0,3,1,Mercier / Hochelaga / Maisonneuve,best_price_in_the_area,1,0,1,0,0,1,0,0,155.43,126,0,0,10.97,-73.53354360000003,1,5290 rue Duchesneau,2,0,0,0,9,1,0,1,4,0,0,http://duproprio.com//house-for-sale-mercier-hochelaga-maisonneuve-quebec-en-604181,0,1,1,0,272.21,2015,8,0,0,441000,465000,470000,new_construction,south_west,,,,,,,
45.51284680000001,0,1,1,3,1,St-Laurent,make_an_offer,0,0,0,0,0,0,1,1,176.52,73,0,0,11.58,-73.71790579999998,0,2867 rue des ï¿½quinoxes,1,1,0,1,10,0,0,0,4,0,0,http://duproprio.com//house-for-sale-st-laurent-quebec-en-618742,0,1,1,0,24.38,2015,8,0,0,582500,625000,585000,townhouse,south_west,1,2010,,,,,
45.4528505,0,1,0,2,1,Verdun,,1,0,0,0,0,1,0,0,134.99,104,0,0,8.23,-73.578554,0,1049 rue Woodland,1,1,0,0,10,1,0,1,2,0,0,http://duproprio.com//home-for-sale-verdun-quebec-en-606933,0,1,1,0,9.14,2015,8,1,0,,450000,450000,,east,1,,,,,,
45.5678569,0,1,0,2,1,Rosemont / La Petite Patrie,no_agents,0,0,0,0,1,1,0,1,,37,0,0,130.81,-73.569187,0,6120 rue de Biloxi,1,1,1,1,,1,0,1,3,0,0,http://duproprio.com//house-for-sale-rosemont-petite-patrie-quebec-en-628879,1,1,1,0,348.39,2015,8,1,0,,474500,455000,,,1,1950,,,,,
45.4751959,0,1,0,2,1,South-West Montreal,,0,0,0,0,0,0,0,0,199.74,51,0,0,104.52,-73.5661427,0,2687 rue Knox,2,1,0,0,7,0,0,1,2,0,0,http://duproprio.com//home-for-sale-montreal-sud-ouest-quebec-en-620027,0,1,1,0,232.26,2015,8,0,1,493000,779000,765000,,south_west,,,,,,,
45.5597056,0,1,0,3,1,Mercier / Hochelaga / Maisonneuve,price_taxes_included,1,0,0,0,0,0,0,0,120.77,119,0,0,,-73.5396614,1,2258 rue Saint-Clï¿½ment,2,0,0,0,,0,0,0,3,0,0,http://duproprio.com//new-house-for-sale-mercier-hochelaga-maisonneuve-quebec-en-604636,0,1,1,0,,2015,8,0,0,,389000,389000,new_construction,south_west,,2015,,,,,
45.6501933,0,1,0,2,1,Pointe-Aux-Trembles / East Montreal,priced_to_move,0,0,0,1,0,1,1,0,91.6,72,0,0,45.8,-73.50685570000002,0,795 place du Parc,1,1,1,0,7,1,0,1,3,0,0,http://duproprio.com//house-for-sale-pointe-aux-trembles-quebec-en-617150,1,1,1,0,134.24,2015,8,0,0,,185500,185500,2_storey,north_east,,1972,,,,,
45.6090188,0,1,0,2,1,Mercier / Hochelaga / Maisonneuve,new_price,0,0,0,0,1,1,0,0,119.69,291,0,0,5.25,-73.52144020000003,1,2921 rue Aubry,1,1,0,0,9,1,0,0,3,0,0,http://duproprio.com//house-for-sale-mercier-hochelaga-maisonneuve-quebec-en-196649,0,1,1,0,133.12,2015,8,0,0,,306000,306000,divided_co_ownership,east,1,1992,cï¿½ramiques_bain_podium,bois_franc_balcon_chambre_des_maï¿½tres_trï¿½s_ï¿½clairï¿½e,,,
45.557318291321096,0,1,0,1,1,Ahuntsic / Cartierville,with_garage,0,0,1,0,0,0,0,0,89.74,59,0,0,104.52,-73.65163564682007,0,9766 rue de la Roche,1,0,0,0,10,0,0,0,2,0,0,http://duproprio.com//home-for-sale-ahuntsic-cartierville-quebec-en-621732,0,1,1,0,30.48,2015,8,0,0,256700,457652,450000,open_area,west,,,,,,,
45.43944519999999,0,1,0,,1,Beaconsfield / Baie-D'Urfï¿½,completely_renovated,0,0,0,0,0,0,1,0,240.62,96,0,0,,-73.86782210000001,1,300 Brighton Drive,2,0,0,0,,0,0,0,5,0,0,http://duproprio.com//home-for-sale-beaconsfield-quebec-en-607562,0,1,1,0,689.9,2015,8,0,0,,,,,,1,1978,,,,,
45.57405,0,1,0,2,1,Ahuntsic / Cartierville,no_agents,0,0,0,0,1,1,0,0,102.19,5,0,0,8.63,-73.6506,0,10390 rue Rancourt,1,0,0,1,8,0,0,0,3,0,0,http://duproprio.com//home-for-sale-ahuntsic-cartierville-quebec-en-633756,1,1,1,0,26.52,2015,8,0,0,323300,405000,385000,detached,,1,1930,,,,,
45.446845432468685,0,1,0,3,1,Dorval / Dorval Island,available_now,1,0,0,0,1,0,0,1,155.61,108,0,0,66.33,-73.72700520740966,1,444 rue Mousseau-Vermette,1,1,0,0,8,0,0,1,4,0,0,http://duproprio.com//home-for-sale-dorval-quebec-en-604127,1,1,1,0,0,2015,8,1,1,440700,449900,,townhouse,south_west,1,2011,,,,,
45.6844988,0,1,0,2,1,Pointe-Aux-Trembles / East Montreal,,0,0,0,0,1,0,0,1,147.25,354,0,0,10.67,-73.5020336,0,3433 rue Damien Gauthier,2,0,1,0,8,0,0,0,4,0,0,http://duproprio.com//home-for-sale-pointe-aux-trembles-quebec-en-541892,0,1,1,1,291.2,2015,8,0,0,309000,349000,349000,townhouse,east,,2000,cï¿½ramique,revï¿½tement_plancher_3x_en_tapis_et_1_en_latte_bois,,,
45.5082323,0,1,1,,1,Pierrefonds / Roxboro,available_now,0,0,0,0,1,0,0,0,89.19,23,0,0,89.19,-73.7841167,0,4848 boulevard Lalande,1,0,1,0,,0,0,0,4,0,0,http://duproprio.com//home-for-sale-pierrefonds-roxboro-quebec-en-622754,0,1,1,0,534.19,2015,8,0,0,281500,285000,275000,detached,south_west,1,1972,,,,,
45.60576662763793,0,1,0,2,1,Anjou,no_agents,0,0,1,0,0,0,0,1,127.28,26,0,0,60.2,-73.53784561157227,1,5364 rue Baldwin,1,1,0,0,7,0,0,0,3,0,0,http://duproprio.com//house-for-sale-anjou-quebec-en-616318,0,1,1,0,124.95,2015,8,0,0,314500,347000,338000,townhouse,south_west,1,1998,,,,,
45.6258521,0,1,0,1,1,Riviï¿½re des Prairies,no_agents,0,0,0,0,1,0,0,0,101.95,13,0,0,11.89,-73.5905999,1,11580 rue La Valiniï¿½re,1,1,0,1,10,0,0,0,3,0,0,http://duproprio.com//home-for-sale-riviere-des-prairies-quebec-en-615075,0,1,1,0,478.4,2015,8,0,0,344500,348000,340000,detached,south_west,1,1974,,,,,
45.5631058,0,1,0,2,1,Villeray / St-Michel / Parc-Extension,,1,0,1,0,0,0,0,0,162.58,157,0,0,,-73.59781470000001,1,3585 rue Everett,1,1,0,0,8,0,0,1,3,0,0,http://duproprio.com//house-for-sale-villeray-st-michel-parc-extension-quebec-en-584354,0,1,1,0,464.52,2015,8,1,0,,439000,434000,townhouse,,1,,,,,,
45.6011476,0,1,0,1,1,Anjou,completely_renovated,0,0,0,0,1,0,0,1,111.48,80,1,0,11.89,-73.54536150000001,1,7861 avenue du Mail,2,1,0,1,9,0,0,0,2,0,0,http://duproprio.com//home-for-sale-anjou-quebec-en-463765,0,1,1,0,490.06,2015,8,0,0,,548500,530000,detached,west,,1957,,,,,
45.47093479999999,0,1,0,2,0,South-West Montreal,available_now,0,0,0,0,1,1,0,0,7.65,39,0,0,7.65,-73.586792,0,149 rue Butternut,2,0,1,0,7,1,0,0,2,0,0,http://duproprio.com//house-for-sale-montreal-sud-ouest-quebec-en-618936,0,0,0,1,280,2015,8,1,0,340000,354900,350000,2_storey,north_east,,1910,,,,,
45.4378587,0,1,0,2,1,Verdun,completely_renovated,0,0,0,0,1,0,0,0,88.26,33,0,0,56.21,-73.5851139,1,1283 rue Lloyd George,2,1,0,1,8,0,0,0,4,0,0,http://duproprio.com//home-for-sale-verdun-quebec-en-622106,0,1,1,0,430.34,2015,8,0,0,,495000,472000,detached,south_east,1,1950,,,,,
45.5283236,0,1,1,2,1,Ahuntsic / Cartierville,new_price,0,0,0,0,1,0,1,0,213.68,156,0,0,153.29,-73.70458289999999,0,11825 rue de Tracy,2,0,0,1,11,0,0,0,5,0,0,http://duproprio.com//home-for-sale-ahuntsic-cartierville-quebec-en-560648,0,1,1,0,418.25,2015,8,0,0,,,,detached,north_east,,1956,,,,,
45.4453794,0,0,0,2,1,Lachine,new_price,0,0,1,0,0,0,0,0,137.87,375,0,0,11.31,-73.68940659999998,1,30 terrasse Louis-Basile-Pigeon,1,0,0,0,7,0,0,0,3,0,0,http://duproprio.com//house-for-sale-lachine-quebec-en-531624,0,1,1,0,157.94,2015,7,0,0,344800,349900,339000,,south,1,1987,,,,,
45.5298395,0,1,1,2,1,Le Plateau-Mont-Royal,,0,0,0,0,1,0,0,1,116.13,642,0,0,,-73.58091609999997,0,4669 rue de la Roche,2,1,0,1,,0,0,1,3,0,0,http://duproprio.com//house-for-sale-plateau-mont-royal-quebec-en-466541,1,1,1,0,185.81,2015,7,0,1,,,,2_storey,,,1885,,1_bureau_fermï¿½,,,
45.4396819,0,1,0,2,0,Pointe-Claire,price_taxes_included,0,0,0,0,0,0,0,0,210.52,85,0,0,14.33,-73.80522259999998,0,28 avenue Fifth,3,0,0,0,,0,0,0,3,0,0,http://duproprio.com//new-home-for-sale-pointe-claire-quebec-en-607642,0,0,1,1,510.97,2015,7,0,0,,715000,715000,new_construction,south_west,1,2015,,,,,
45.50616644256553,0,1,0,2,1,Pierrefonds / Roxboro,several_upgrades,0,0,0,0,1,0,0,0,209.03,71,0,0,12.19,-73.76877307891846,0,4956 rue Fï¿½lix-McLernan,3,1,0,1,11,0,0,0,4,0,0,http://duproprio.com//home-for-sale-pierrefonds-roxboro-quebec-en-609564,0,1,1,0,510.97,2015,7,0,0,,,,,west,1,1987,,,,,
45.5619214,0,1,0,3,1,Rosemont / La Petite Patrie,urgent,0,0,0,0,0,0,0,0,116.03,150,0,0,4.3,-73.57524419999999,1,5996 avenue 23e,1,1,1,0,7,0,0,0,3,0,0,http://duproprio.com//house-for-sale-rosemont-petite-patrie-quebec-en-581715,0,1,1,0,5.86,2015,7,0,0,396600,397000,365000,semi_detached,south_west,1,2000,,,,,
45.62271519999999,0,1,0,2,1,Riviï¿½re des Prairies,price_taxes_included,0,0,1,0,0,0,0,0,202.9,107,1,0,12.8,-73.5951321,1,11512 rue Edith-Serei,2,0,0,1,,0,0,0,3,0,0,http://duproprio.com//new-home-for-sale-riviere-des-prairies-quebec-en-593500,0,1,1,1,832.13,2015,7,0,0,,649900,649900,new_construction,south_east,2,2014,,,,,
45.4585295,0,1,0,3,1,South-West Montreal,divided,1,0,0,0,0,0,0,0,152.18,24,0,0,75.65,-73.5902967,0,5986 rue Eadie,1,1,0,0,8,0,0,0,3,0,0,http://duproprio.com//house-for-sale-montreal-sud-ouest-quebec-en-621303,0,1,1,0,114.23,2015,7,0,1,401300,474999,465000,semi_detached,south_east,2,2009,,,,,
45.4768683,0,1,1,2,1,Cï¿½te-des-Neiges / Notre-Dame-de-Grï¿½ce,no_agents,0,0,0,0,0,0,0,0,134.5,63,0,0,67.3,-73.62349770000003,0,4367 avenue old orchard,1,1,1,1,7,0,0,0,3,0,0,http://duproprio.com//house-for-sale-cote-des-neiges-quebec-en-610472,0,1,1,0,219.5,2015,7,1,0,544000,699000,640000,2_storey,north,1,1928,,,,,
45.4627742,0,1,0,1,1,Kirkland,negotiable,0,0,1,0,1,1,0,0,12.84,104,0,0,12.84,-73.85990700000002,0,11 rue Piper,2,0,1,1,12,1,0,1,4,0,0,http://duproprio.com//home-for-sale-kirkland-quebec-en-593811,0,1,1,0,30.48,2015,7,0,0,370000,369000,349000,detached,,1,1971,,,,,
45.6748337,0,0,0,2,1,Riviï¿½re des Prairies,with_garage,0,0,0,0,0,0,1,0,124.4,124,0,0,9.14,-73.53609059999997,0,11297 boulevard Perras,1,1,0,0,9,0,0,0,3,0,0,http://duproprio.com//house-for-sale-riviere-des-prairies-quebec-en-585382,0,1,1,0,181,2015,7,0,0,312000,339900,330000,semi_detached,north,1,2011,,,,,
45.5443679,0,1,0,2,1,Ahuntsic / Cartierville,available_now,0,0,0,0,0,0,1,0,,56,0,0,7.92,-73.67233929999998,1,10574 rue Verville,1,1,0,0,,0,0,1,3,0,0,http://duproprio.com//house-for-sale-ahuntsic-cartierville-quebec-en-506161,0,1,1,0,348.39,2015,7,0,0,,,,,,1,1952,,,,,
45.44575555227992,0,1,1,2,1,Lachine,reduced_price,0,0,0,0,0,0,1,1,133.78,889,0,0,66.89,-73.69367122650146,0,947 rue Gameroff,1,1,0,0,8,0,0,1,3,0,0,http://duproprio.com//house-for-sale-lachine-quebec-en-390535,0,1,1,0,123.93,2015,7,1,1,,,,divided_co_ownership,south,1,2007,bain_podium,plancher_de_bois_franc_dans_toutes_les_chambres_walk_in_chambre_des_maï¿½tres,,,
45.50445,0,1,0,1,1,L'ile-Bizard / Sainte-Geneviï¿½ve,,0,0,0,0,1,0,0,0,144,18,0,0,12.8,-73.8628236,0,10 rue ï¿½mile,2,0,0,0,,0,0,0,5,0,0,http://duproprio.com//home-for-sale-ile-bizard-quebec-en-528907,1,1,1,1,1104.25,2015,7,0,0,,439000,,,,,,,,,,
45.4631844,0,1,0,2,1,Pointe-Claire,by_appointment,1,0,0,1,1,0,0,0,106.84,406,0,0,52.95,-73.84494130000002,0,3 avenue Portway,1,1,1,1,7,0,0,0,2,0,0,http://duproprio.com//house-for-sale-pointe-claire-quebec-en-502851,0,1,1,1,224.3,2015,7,0,0,252246,258000,254000,2_storey,north,1,1981,,big_rooms_huge_closets,,,
45.6921354,0,1,0,2,1,Pointe-Aux-Trembles / East Montreal,with_garage,0,0,0,0,1,0,1,0,97.08,1177,0,0,9.14,-73.48550829999999,0,37 avenue 86e,1,1,1,1,8,0,0,0,3,0,0,http://duproprio.com//home-for-sale-pointe-aux-trembles-quebec-en-321471,0,1,1,0,27.97,2015,7,0,0,,374900,348000,2_storey,east,1,1985,8_6_x_9_pi,ccp,,,
45.5345259,0,1,0,3,1,Ahuntsic / Cartierville,completely_renovated,0,0,1,0,1,0,0,0,,41,0,0,,-73.68584759999999,1,11216 rue Frigon,3,0,0,0,,0,0,0,5,0,0,http://duproprio.com//home-for-sale-ahuntsic-cartierville-quebec-en-613088,0,1,1,1,0,2015,6,0,0,,799000,742000,,,,,,,,,
45.4346653,0,1,0,1,1,Ste-Anne-De-Bellevue,,0,0,0,1,1,1,0,0,9.14,54,0,0,9.14,-73.92594980000001,0,113 rue Grenier,2,1,1,1,9,1,0,1,4,0,0,http://duproprio.com//home-for-sale-ste-anne-de-bellevue-quebec-en-607669,0,1,1,0,577.21,2015,6,0,0,,,,detached,south,1,1991,,,,,
45.4691316,0,1,0,2,1,Pointe-Claire,negotiable,0,0,0,0,0,0,0,0,148.64,41,0,0,273.13,-73.7996278,1,30 avenue Nicholson,2,0,1,0,9,0,0,0,4,0,0,http://duproprio.com//house-for-sale-pointe-claire-quebec-en-565881,0,1,1,0,352.75,2015,6,0,0,352700,395000,383000,2_storey,north,1,2000,,,,,
45.4444226,0,1,0,2,1,Pointe-Claire,by_appointment,0,0,0,0,1,1,0,0,204.39,226,0,0,116.87,-73.82109639999999,0,296 avenue Hickory,2,1,1,0,11,0,0,0,4,0,0,http://duproprio.com//home-for-sale-pointe-claire-quebec-en-562965,1,1,1,1,1137.04,2015,6,0,0,,,,executive,north_east,1,1988,salle_de_bain_exï¿½cutive_douche_et_jacuzzi_avec_salle_de_bain_enfant,chambre_de_maï¿½tre_attrayante_et_3_chambres_d_enfant_confortables,,,
45.5494169,0,1,0,2,1,Villeray / St-Michel / Parc-Extension,negotiable,0,0,1,0,0,0,0,1,162.58,300,0,0,62.71,-73.60301140000001,1,7033 avenue de Lorimier,2,1,0,0,8,0,0,1,3,0,0,http://duproprio.com//house-for-sale-villeray-st-michel-parc-extension-quebec-en-532680,0,1,1,0,102.5,2015,6,0,1,,,,undivided_co_ownership,east,,2013,salle_de_bain_spectaculaire_ï¿½_l_ï¿½tage_ï¿½clairï¿½e_ï¿½_travers_un_verre_givrï¿½_par_le_puits_de_lumiï¿½re_de_la_piï¿½ce_centrale_murs_tuiles_de_porcelaine_et_plancher_mosaï¿½que_douche_pluie_et_douche_coulissante_sur_rail_paroi_de_verre_pleine_hauteur_9_pi_lavabo_suspendu_robinetterie_au_mur_salle_de_bain_du_sous_sol_ï¿½quipï¿½e_d_un_bain_maax_rubik_longueur_5_pi,2_chambres_ï¿½_l_ï¿½tage_hauteur_9_pi_planchers_ï¿½rable_chacune_comprenant_un_large_placard_avec_portes_coulissantes_fenï¿½tre_mesurant_8_x_8_pi_dans_la_chambre_des_maï¿½tres_3e_chambre_au_sous_sol_hauteur_6_pi_7_po_plancher_flottant,,,
45.5920467,0,1,1,2,1,Anjou,completely_renovated,0,0,0,0,0,0,0,0,111.95,27,0,0,6.4,-73.55359529999998,0,6350 avenue Des Jalesnes,1,0,0,1,6,0,0,0,2,0,0,http://duproprio.com//house-for-sale-anjou-quebec-en-595837,0,1,1,0,147.72,2015,6,0,0,,378000,367000,open_area,south_west,1,1973,,,,,
45.5977636,0,1,0,1,1,Mercier / Hochelaga / Maisonneuve,,0,0,0,0,1,0,0,0,85.94,41,0,0,85.94,-73.53241159999999,1,8105 de Teck,1,0,1,1,8,1,0,0,4,0,0,http://duproprio.com//home-for-sale-mercier-hochelaga-maisonneuve-quebec-en-600824,1,1,1,0,407.66,2015,6,0,0,428100,369500,369500,,north_west,1,1952,,,,,
45.6050005,0,1,0,1,1,Mercier / Hochelaga / Maisonneuve,available_now,0,0,1,0,1,0,1,1,88.26,7,0,0,7.62,-73.5321169,0,8716 rue Forbin-Janson,1,1,0,1,8,1,0,0,2,0,0,http://duproprio.com//home-for-sale-mercier-hochelaga-maisonneuve-quebec-en-620282,1,1,1,0,27.43,2015,6,1,0,216000,249000,245000,semi_detached,south_east,,1952,,,,,
45.5919632,0,1,0,1,1,St-Leonard,,0,0,0,1,1,0,0,0,116.13,70,0,0,12.19,-73.60751820000002,0,8995 rue Claudel,1,1,1,1,,0,0,0,3,0,1,http://duproprio.com//home-for-sale-st-leonard-quebec-en-600762,0,1,1,0,30.48,2015,6,0,0,,,,,,,1956,,,,,
45.54366774433131,0,1,0,3,1,Rosemont / La Petite Patrie,negotiable,0,0,1,0,0,0,0,0,182.55,73,0,0,1.44,-73.5678448893799,1,4682 avenue 2e,2,0,0,0,7,0,0,0,4,0,0,http://duproprio.com//house-for-sale-rosemont-petite-patrie-quebec-en-599854,0,1,1,0,0,2015,6,0,0,,,,new_construction,south,1,2015,,,,,
45.6471343,0,1,0,1,1,Pointe-Aux-Trembles / East Montreal,completely_renovated,0,0,0,0,0,0,1,0,111.48,169,0,0,12.8,-73.50843199999997,0,1851 avenue 17e,2,0,0,0,8,0,0,0,4,0,0,http://duproprio.com//home-for-sale-pointe-aux-trembles-quebec-en-566921,0,1,1,0,510.97,2015,6,0,0,,354900,350000,detached,north_east,,1968,2_douches_en_cï¿½ramique_et_bain_autoportant,chambre_des_maï¿½tres_avec_walk_in,,,
45.63684629999999,0,1,0,1,1,Pointe-Aux-Trembles / East Montreal,new_price,1,0,0,0,0,0,0,1,130.99,2144,0,0,148.64,-73.49848880000002,0,855 avenue 4e,1,1,0,0,10,0,0,1,3,0,0,http://duproprio.com//home-for-sale-pointe-aux-trembles-quebec-en-138388,0,1,1,0,410.63,2015,6,0,0,323500,339900,333000,detached,east,1,1971,,,,,
45.4703133,0,1,1,2,1,South-West Montreal,completely_renovated,0,0,0,0,1,0,0,1,176.52,8,0,0,11.58,-73.5944723,0,5225 rue Turcot,2,0,0,1,7,0,0,0,4,0,0,http://duproprio.com//home-for-sale-montreal-sud-ouest-quebec-en-608406,0,1,1,0,20.12,2015,6,0,0,,489000,489000,semi_detached,north_west,,1903,,,,,
45.4444226,0,1,0,2,1,Pointe-Claire,by_appointment,0,0,0,0,0,0,0,0,204.39,226,1,0,116.87,-73.82109639999999,0,296 avenue Hickory,2,1,0,0,11,0,1,1,4,0,1,http://duproprio.com//home-for-sale-pointe-claire-quebec-en-562965,0,1,1,0,1137.04,2015,6,0,0,,,,executive,north_east,1,1988,salle_de_bain_exï¿½cutive_douche_et_jacuzzi_avec_salle_de_bain_enfant,chambre_de_maï¿½tre_attrayante_et_3_chambres_d_enfant_confortables,,,
45.5494169,0,1,0,2,1,Villeray / St-Michel / Parc-Extension,negotiable,0,0,1,0,0,0,0,0,162.58,300,0,0,62.71,-73.60301140000001,1,7033 avenue de Lorimier,2,0,0,0,8,0,0,1,3,0,0,http://duproprio.com//house-for-sale-villeray-st-michel-parc-extension-quebec-en-532680,0,1,1,0,102.5,2015,6,0,1,,,,undivided_co_ownership,east,,2013,salle_de_bain_spectaculaire_ï¿½_l_ï¿½tage_ï¿½clairï¿½e_ï¿½_travers_un_verre_givrï¿½_par_le_puits_de_lumiï¿½re_de_la_piï¿½ce_centrale_murs_tuiles_de_porcelaine_et_plancher_mosaï¿½que_douche_pluie_et_douche_coulissante_sur_rail_paroi_de_verre_pleine_hauteur_9_pi_lavabo_suspendu_robinetterie_au_mur_salle_de_bain_du_sous_sol_ï¿½quipï¿½e_d_un_bain_maax_rubik_longueur_5_pi,2_chambres_ï¿½_l_ï¿½tage_hauteur_9_pi_planchers_ï¿½rable_chacune_comprenant_un_large_placard_avec_portes_coulissantes_fenï¿½tre_mesurant_8_x_8_pi_dans_la_chambre_des_maï¿½tres_3e_chambre_au_sous_sol_hauteur_6_pi_7_po_plancher_flottant,,,
45.5920467,0,1,0,2,1,Anjou,completely_renovated,0,0,0,0,0,0,0,0,111.95,27,0,0,6.4,-73.55359529999998,0,6350 avenue Des Jalesnes,1,1,0,1,6,0,0,0,2,0,0,http://duproprio.com//house-for-sale-anjou-quebec-en-595837,0,1,1,0,147.72,2015,6,0,0,,378000,367000,open_area,south_west,1,1973,,,,,
45.5977636,0,1,0,1,1,Mercier / Hochelaga / Maisonneuve,,0,0,1,0,1,0,1,0,85.94,41,0,0,85.94,-73.53241159999999,1,8105 de Teck,1,0,1,1,8,0,0,0,4,0,0,http://duproprio.com//home-for-sale-mercier-hochelaga-maisonneuve-quebec-en-600824,0,1,1,0,407.66,2015,6,0,0,428100,369500,369500,,north_west,1,1952,,,,,
45.6050005,0,0,0,1,1,Mercier / Hochelaga / Maisonneuve,available_now,0,0,1,0,1,0,1,1,88.26,7,0,0,7.62,-73.5321169,0,8716 rue Forbin-Janson,1,1,0,0,8,1,0,0,2,0,0,http://duproprio.com//home-for-sale-mercier-hochelaga-maisonneuve-quebec-en-620282,1,1,1,0,27.43,2015,6,1,0,216000,249000,245000,semi_detached,south_east,,1952,,,,,
45.5919632,0,1,0,1,1,St-Leonard,,0,0,0,0,1,0,1,0,116.13,70,0,0,12.19,-73.60751820000002,0,8995 rue Claudel,1,1,1,0,,0,0,0,3,0,1,http://duproprio.com//home-for-sale-st-leonard-quebec-en-600762,0,1,1,0,30.48,2015,6,0,0,,,,,,,1956,,,,,
45.54366774433131,0,1,0,3,1,Rosemont / La Petite Patrie,negotiable,1,0,1,1,0,0,0,0,182.55,73,0,0,1.44,-73.5678448893799,1,4682 avenue 2e,2,0,0,0,7,0,0,0,4,0,0,http://duproprio.com//house-for-sale-rosemont-petite-patrie-quebec-en-599854,0,1,1,1,0,2015,6,0,0,,,,new_construction,south,1,2015,,,,,
45.6471343,0,1,0,1,1,Pointe-Aux-Trembles / East Montreal,completely_renovated,0,0,0,0,1,0,0,1,111.48,169,0,0,12.8,-73.50843199999997,1,1851 avenue 17e,2,0,0,1,8,0,0,0,4,0,0,http://duproprio.com//home-for-sale-pointe-aux-trembles-quebec-en-566921,1,1,1,0,510.97,2015,6,1,0,,354900,350000,detached,north_east,,1968,2_douches_en_cï¿½ramique_et_bain_autoportant,chambre_des_maï¿½tres_avec_walk_in,,,
45.63684629999999,0,1,0,1,1,Pointe-Aux-Trembles / East Montreal,new_price,1,0,0,0,0,0,0,0,130.99,2144,0,0,148.64,-73.49848880000002,0,855 avenue 4e,1,1,0,0,10,0,0,1,3,0,0,http://duproprio.com//home-for-sale-pointe-aux-trembles-quebec-en-138388,0,1,1,0,410.63,2015,6,0,0,323500,339900,333000,detached,east,1,1971,,,,,
45.4703133,0,1,1,2,1,South-West Montreal,completely_renovated,0,0,0,0,0,0,0,0,176.52,8,0,0,11.58,-73.5944723,0,5225 rue Turcot,2,1,0,0,7,0,0,0,4,0,0,http://duproprio.com//home-for-sale-montreal-sud-ouest-quebec-en-608406,0,1,1,0,20.12,2015,6,0,1,,489000,489000,semi_detached,north_west,,1903,,,,,
45.4671423,0,1,1,2,1,Cï¿½te-des-Neiges / Notre-Dame-de-Grï¿½ce,,0,0,0,0,1,1,0,0,107.77,39,0,0,53.93,-73.63631479999998,1,4580 boulevard Cavendish,1,0,0,0,6,0,0,1,3,0,0,http://duproprio.com//house-for-sale-cote-des-neiges-quebec-en-585459,0,1,1,0,222.22,2015,6,0,0,394700,387000,368500,2_storey,west,1,1950,,,,,
45.6178776,0,1,0,1,1,Anjou,several_upgrades,0,0,0,0,1,0,0,1,207.82,28,1,0,674.88,-73.55286960000001,0,9230 avenue ï¿½mile-Legault,2,1,0,1,10,0,1,1,5,0,1,http://duproprio.com//home-for-sale-anjou-quebec-en-602951,0,1,1,0,36.48,2015,6,0,0,510000,549000,537300,detached,west,,1985,,,,,
45.5848275,0,1,0,2,1,North Montreal,price_taxes_not_included,1,0,0,0,1,0,0,0,142.7,117,0,0,,-73.6436693,1,10749 avenue du Parc-Georges - Beethoven semi-dï¿½tachï¿½,1,1,1,1,,0,0,0,3,0,0,http://duproprio.com//new-home-for-sale-north-montreal-quebec-en-586277,0,1,1,1,0,2015,6,0,0,,399500,399500,new_construction,,1,2015,,,,,
45.52404548801813,0,1,1,2,1,St-Laurent,available_now,0,0,0,0,1,0,0,0,111.48,572,0,0,56.35,-73.7244814878357,0,3472 rue Garneys,1,1,0,1,6,0,0,0,3,0,0,http://duproprio.com//house-for-sale-st-laurent-quebec-en-471338,0,1,1,0,433.58,2015,6,0,0,410700,379000,360000,semi_detached,west,1,1977,,,,,
45.553021102019805,0,1,0,2,1,Rosemont / La Petite Patrie,,0,0,0,0,0,0,1,1,118.92,1,0,0,9.75,-73.5708475112915,0,5315 rue Lafond,1,0,0,0,6,0,0,1,2,0,0,http://duproprio.com//house-for-sale-rosemont-petite-patrie-quebec-en-562005,0,1,1,0,35.05,2015,6,1,1,,499000,500000,townhouse,south_east,1,1986,,,,,
45.439612999999994,0,1,0,2,1,Ste-Anne-De-Bellevue,reduced_price,0,0,0,0,1,1,0,1,136.01,255,0,0,104.14,-73.92933075396729,1,349 rue Aumais,1,1,0,1,11,0,0,1,2,0,0,http://duproprio.com//home-for-sale-ste-anne-de-bellevue-quebec-en-549762,0,1,1,0,588.08,2015,6,0,0,,419000,392000,2_storey,south_west,1,1993,grande_douche_de_4_x_5_plancher_chauffant_rï¿½novï¿½e_en_2013,plancher_en_bois_franc_walk_in_ventilateur_au_plafond_a_c_grande_fenestration_rï¿½novï¿½es_en_2013,,,
45.5967522,0,1,1,3,1,Mercier / Hochelaga / Maisonneuve,new_price,0,0,0,0,0,1,0,1,126,427,0,0,10.69,-73.54067470000001,0,5195 rue Joseph A Rodier,1,1,0,0,6,1,0,0,4,0,0,http://duproprio.com//house-for-sale-mercier-hochelaga-maisonneuve-quebec-en-507078,0,1,1,0,216.5,2015,6,0,0,446400,375000,360000,executive,north,1,1992,,bois_franc,,,
45.5304992,0,1,0,2,1,Le Plateau-Mont-Royal,,0,0,0,0,1,1,0,0,156,2,0,0,78,-73.5803315,0,4659 rue de Brï¿½beuf,2,0,0,0,8,1,0,0,3,0,0,http://duproprio.com//home-for-sale-plateau-mont-royal-quebec-en-579855,1,1,1,0,185.8,2015,6,0,1,,,,2_storey,north_east,,1900,,,,,
45.5158932,0,1,0,2,1,Mount-Royal,,0,0,0,0,1,0,1,1,213.12,11,0,0,106.56,-73.6503075,0,114 avenue Morrison,1,0,0,0,15,0,0,1,4,0,0,http://duproprio.com//house-for-sale-mount-royal-quebec-en-616412,0,1,1,0,501.3,2015,6,0,0,800292,899000,899000,2_storey,south_east,1,1944,,,,,
45.46159919999999,0,1,0,2,1,Kirkland,new_house,0,0,0,0,1,0,0,0,283.35,253,0,0,,-73.84597310000004,0,38 rue du Syrah,3,1,0,0,12,0,0,0,5,0,0,http://duproprio.com//home-for-sale-kirkland-quebec-en-145341,0,1,1,1,0,2015,6,1,0,,,,detached,,1,2010,,4_1,,,
45.453389507431176,0,0,0,1,1,Kirkland,make_an_offer,0,0,0,0,0,0,1,0,99.41,79,0,0,99.41,-73.8677968609486,0,17165 boulevard brunswick,2,1,0,0,9,0,0,0,4,0,0,http://duproprio.com//home-for-sale-kirkland-quebec-en-477663,0,1,1,0,561.23,2015,6,0,0,302500,349900,327000,detached,north_west,,1971,,,,,
45.6598207,0,1,0,2,1,Riviï¿½re des Prairies,negotiable,0,0,1,0,1,0,0,0,111.48,248,0,0,89.19,-73.5534935,0,12310 rue Primat Parï¿½,2,1,1,0,8,0,1,1,4,0,1,http://duproprio.com//home-for-sale-riviere-des-prairies-quebec-en-434339,0,1,1,1,641.03,2015,6,1,0,404000,464000,445000,detached,west,,1990,douche_norvï¿½gienne_dans_salle_de_bain_principale,2_chambres_au_sous_sol,,,
45.522361,0,1,0,3,1,Le Plateau-Mont-Royal,,0,0,0,0,0,1,0,1,154.22,47,0,0,66.33,-73.5752923,0,4080 avenue de Chateaubriand,2,1,0,1,7,0,0,1,3,0,0,http://duproprio.com//house-for-sale-plateau-mont-royal-quebec-en-600896,0,1,1,0,102.56,2015,6,0,1,,645000,630000,link,,,1875,,,,,
45.4630497,0,1,1,1,1,Cï¿½te-Saint-Luc / Hampstead / Montreal West,no_agents,0,0,0,1,1,1,0,0,111.48,369,0,0,111.48,-73.6774699,1,5842 avenue Smart,2,1,1,1,7,1,0,1,3,0,0,http://duproprio.com//home-for-sale-cote-st-luc-quebec-en-521859,1,1,1,0,418.55,2015,6,0,0,392000,365000,350000,open_area,west,,1953,bathtub_shower_toilet_and_sink,hardwood_floors,,,
45.490025,0,1,0,2,1,Dollard-Des-Ormeaux,by_appointment,0,0,0,0,0,0,1,0,185.81,22,0,0,9.14,-73.8073842,0,131 rue Lisbonne,3,0,0,0,11,0,0,0,4,0,0,http://duproprio.com//home-for-sale-dollard-des-ormeaux-quebec-en-607744,0,1,1,0,557.42,2015,6,0,0,,,,detached,north,1,1986,,,,,
45.5642965,0,1,0,1,1,Villeray / St-Michel / Parc-Extension,updated_price,0,0,0,0,1,1,1,1,80.27,48,0,0,80.27,-73.5991775,0,3633 rue L.-O.-David,1,1,1,0,10,0,0,0,2,0,0,http://duproprio.com//house-for-sale-villeray-st-michel-parc-extension-quebec-en-602609,0,1,1,0,187.29,2015,6,0,0,,350000,330000,link,south,,1955,,,,,
45.4539846,0,1,0,1,1,South-West Montreal,,0,0,0,0,0,0,0,0,95.23,66,0,0,167.23,-73.60137299999997,1,6344 rue Jogues,1,1,0,0,8,0,0,0,2,0,0,http://duproprio.com//home-for-sale-montreal-sud-ouest-quebec-en-583989,0,1,1,0,24.08,2015,6,0,0,,340000,330000,,east,,1915,,,,,
45.6159557,0,1,0,1,1,North Montreal,,0,0,0,0,0,1,1,0,144.37,46,0,0,12.86,-73.63362810000001,0,12607 avenue Lanthier,2,0,0,0,12,1,1,1,4,0,0,http://duproprio.com//home-for-sale-north-montreal-quebec-en-600616,0,1,1,1,29.87,2015,6,0,0,330000,375000,350000,,east,,1965,,,,,
45.6092928,0,0,0,2,1,Mercier / Hochelaga / Maisonneuve,new_price,0,0,0,0,0,0,1,0,117.36,119,0,0,5.49,-73.52112629999999,1,2910 rue Duchesneau,1,1,0,0,9,0,0,0,3,0,0,http://duproprio.com//house-for-sale-mercier-hochelaga-maisonneuve-quebec-en-577220,0,1,1,0,133.13,2015,6,0,0,285300,293500,282500,2_storey,west,1,1994,bain_podium_et_cï¿½ramique,balcon_dans_chambre_des_maitres,,,
45.54422479999999,0,1,1,1,1,Ahuntsic / Cartierville,new_price,1,0,0,0,1,1,1,1,92.9,223,0,0,10.67,-73.68997460000003,0,11884 rue Poincarï¿½,2,1,0,0,8,0,0,1,4,0,0,http://duproprio.com//home-for-sale-ahuntsic-cartierville-quebec-en-557423,0,1,1,0,487.74,2015,5,0,0,366900,359000,345000,link,south_west,,1955,salle_de_bain_ï¿½_l_ï¿½tageï¿½_5x_7_fonctionnelle_salle_de_bain_au_sous_solï¿½_8x_11,3_1chambres_ï¿½_l_ï¿½tage_plancher_bois_franc_toutes_avec_grands_garde_robes,,,
45.546884641946676,0,1,0,2,1,Ahuntsic / Cartierville,with_parking,0,0,0,0,0,0,0,0,116.13,98,0,0,7.62,-73.64146739244461,0,8867 rue Berri,1,0,0,1,7,0,0,0,2,0,0,http://duproprio.com//home-for-sale-ahuntsic-cartierville-quebec-en-577181,0,1,1,0,24.38,2015,5,0,0,352000,424000,407000,,,1,1922,grande_salle_de_bain_ï¿½_faire_rï¿½ver_bain_de_6_pieds_et_douche_indï¿½pendante,deux_chambres_fermï¿½es_un_bureau_ï¿½_aire_ouverte_possibilitï¿½_d_une_troisiï¿½me_chambre_au_rdc,,,
45.6048144,0,1,1,1,1,Mercier / Hochelaga / Maisonneuve,best_price_in_the_area,0,0,0,0,1,0,1,0,88.5,12,0,0,7.62,-73.53147810000002,0,4400 rue Desormeaux,2,1,0,1,9,1,0,0,4,0,0,http://duproprio.com//home-for-sale-mercier-hochelaga-maisonneuve-quebec-en-611267,0,1,1,0,7.62,2015,5,0,0,227800,239000,239000,link,west,,1952,,,,,
45.4993444,0,1,0,2,1,L'ile-Bizard / Sainte-Geneviï¿½ve,make_an_offer,0,0,0,0,1,0,0,1,203.92,240,0,0,106.28,-73.87445020000001,1,437 croissant Boyer,2,1,0,1,12,0,0,0,6,0,0,http://duproprio.com//home-for-sale-ile-bizard-quebec-en-550518,0,1,1,0,591.48,2015,5,0,0,368800,439000,415000,colonial,east,1,1986,un_cabinet_ï¿½_chaque_ï¿½tage_one_on_each_floor,4_chambres_ï¿½_l_ï¿½tage_et_2_chambres_au_sous_sol_4_bedrooms_2nd_floor_2_bedrooms_basement,,,
45.5979486,0,1,1,1,1,Mercier / Hochelaga / Maisonneuve,with_garage,0,0,0,0,1,0,0,0,86.59,181,0,0,111.95,-73.53180220000002,0,8160 rue de Teck,2,1,1,1,10,0,1,1,3,0,1,http://duproprio.com//home-for-sale-mercier-hochelaga-maisonneuve-quebec-en-563963,0,1,1,0,420.48,2015,5,0,0,,474000,465250,detached,south,,1951,,,,,
45.5871189,0,1,0,2,1,Mercier / Hochelaga / Maisonneuve,with_garage,1,0,0,0,0,0,0,0,144.93,19,0,0,11.58,-73.53522529999998,1,2970 rue Anne-Hï¿½bert,1,1,0,0,7,0,0,1,3,0,0,http://duproprio.com//house-for-sale-mercier-hochelaga-maisonneuve-quebec-en-604843,0,1,1,0,230.4,2015,5,0,0,476700,539000,517500,freehold_townhouse,west,1,2005,,,,,
45.5303733,0,1,0,2,1,Ahuntsic / Cartierville,with_garage,0,0,1,0,0,0,1,0,167.23,104,0,0,95.23,-73.72559940000002,0,12397 rue Cousineau,2,0,0,0,7,0,0,0,4,0,0,http://duproprio.com//home-for-sale-ahuntsic-cartierville-quebec-en-577037,0,1,1,1,392.52,2015,5,0,0,,,,detached,north_east,1,2002,grande_salle_de_bain_attenante_avec_douche_en_cï¿½ramique_avec_porte_de_verre_lavabo_double_et_baignoire_jacuzzi_deuxiï¿½me_salle_de_bain_complï¿½te_ï¿½_l_ï¿½tage_plomberie_prï¿½te_pour_salle_de_bain_au_s_sol,spacieuse_chambre_des_maï¿½tres_avec_grand_walk_in_et_salle_de_bain_attenante_une_chambre_avec_vue_sur_le_front_et_une_chambre_avec_vue_arriï¿½re_une_chambre_bureau_au_s_sol,,,
45.66065039999999,0,1,0,2,1,Pointe-Aux-Trembles / East Montreal,completely_renovated,0,0,1,0,1,0,0,0,,9,0,0,,-73.51064539999999,0,13310 rue Marie-Anne Asselin,1,0,1,0,7,0,0,0,2,0,0,http://duproprio.com//house-for-sale-pointe-aux-trembles-quebec-en-604796,0,1,1,0,,2015,5,0,0,243500,260000,260000,2_storey,east,1,1992,,,,,
45.5347637,0,1,0,1,1,Ahuntsic / Cartierville,,0,0,1,0,0,1,0,0,185.81,67,0,0,120.77,-73.7125562,1,12236 boulevard Saint-Germain,2,0,0,0,9,0,0,0,4,0,0,http://duproprio.com//house-for-sale-ahuntsic-cartierville-quebec-en-586797,0,1,1,1,306.02,2015,5,0,0,393600,395000,380000,townhouse,west,,1968,,,,,
45.4525813,0,1,0,3,1,Pointe-Claire,by_appointment,0,0,0,0,1,1,1,0,139.35,52,0,0,131.92,-73.79054989999997,0,34 avenue Queen,1,0,1,1,8,0,0,0,3,0,0,http://duproprio.com//home-for-sale-pointe-claire-quebec-en-576485,1,1,1,0,688.88,2015,5,1,0,375972,449000,438000,,west,1,1963,,,,,
45.6459547,0,1,0,1,1,Riviï¿½re des Prairies,priced_to_move,0,0,1,0,0,0,0,0,99.87,96,0,0,9.14,-73.5896836,0,12650 avenue Alexis-Carrel,2,1,0,0,13,0,0,0,5,0,0,http://duproprio.com//home-for-sale-riviere-des-prairies-quebec-en-577155,0,1,1,0,27.43,2015,5,0,0,304700,325000,320000,,,1,1962,2_salles_de_bain_complï¿½tes,,,,
45.4719784,0,1,0,3,1,Verdun,,0,0,1,0,0,0,0,0,110.37,19,0,0,55.18,-73.56481810000002,1,3065 rue de Rushbrooke,1,1,0,0,6,0,0,0,3,0,0,http://duproprio.com//house-for-sale-verdun-quebec-en-601398,0,1,1,0,141.4,2015,5,0,1,417600,470000,470000,townhouse,north,2,2000,,,,,
45.6374854,0,1,0,1,1,Pointe-Aux-Trembles / East Montreal,with_garage,0,0,1,1,1,0,0,0,115.48,614,0,0,115.48,-73.5035297,1,1258 avenue 4e,1,1,1,1,8,0,0,0,3,0,0,http://duproprio.com//home-for-sale-pointe-aux-trembles-quebec-en-452935,0,1,1,0,610.56,2015,5,0,0,287667,250000,230000,,,,1955,refaite_complï¿½tement_2013,plancher_de_bambou,,,
45.5918062,0,1,0,1,1,Mercier / Hochelaga / Maisonneuve,no_agents,0,0,0,0,1,0,0,0,134.9,23,0,0,8.03,-73.54726119999998,0,4505 rue des Groseillers,2,0,0,1,11,0,0,0,3,0,0,http://duproprio.com//home-for-sale-mercier-hochelaga-maisonneuve-quebec-en-428376,0,1,1,0,693.3,2015,5,0,0,,,,multi_generation,,,1955,salle_de_bain_avec_bain_thï¿½rapeutique_au_rez_de_chaussï¿½e_et_l_autre_au_sous_sol_avec_une_douche,deux_au_rez_de_chaussï¿½e_et_une_au_sous_sol,,,
45.430177,0,1,0,1,1,LaSalle,reduced_price,0,0,0,0,1,0,0,0,100.1,52,0,0,100.1,-73.62797189999998,0,8535 rue David-Boyer,1,1,0,0,8,0,0,0,4,0,0,http://duproprio.com//house-for-sale-lasalle-quebec-en-593147,0,1,1,0,239,2015,5,0,0,,359000,340000,,west,1,1966,,,,,
45.41898496911214,0,1,0,2,1,Beaconsfield / Baie-D'Urfï¿½,urgent,1,0,0,1,1,1,1,0,257.62,253,0,0,36.27,-73.89062981586915,0,555 rue Cedar,2,1,1,0,10,0,1,1,3,0,1,http://duproprio.com//home-for-sale-beaconsfield-quebec-en-545908,0,1,1,0,1132.3,2015,5,1,0,,495000,468000,2_storey,,1,1950,plancher_chauffant_trï¿½s_grande_douche_vitrï¿½e,trï¿½s_grande_chambre_des_maï¿½tres,,,
45.549147240125876,0,1,0,2,1,Villeray / St-Michel / Parc-Extension,,0,0,0,0,0,0,0,0,,4,0,0,,-73.62901434418029,1,1061 rue de Valcartier,2,0,0,0,7,0,0,0,3,0,0,http://duproprio.com//home-for-sale-villeray-st-michel-parc-extension-quebec-en-609378,0,1,1,0,,2015,5,0,1,408533,480000,475000_50,divided_co_ownership,north,,2004,,,,,
45.6002951,0,1,1,3,1,Anjou,make_an_offer,1,0,0,0,0,0,1,0,179.12,61,0,0,11.89,-73.55492459999999,0,7600 boulevard Wilfrid Pelletier,1,1,0,0,8,0,0,0,4,0,0,http://duproprio.com//home-for-sale-anjou-quebec-en-121192,0,1,1,0,576.28,2015,5,0,0,486533,359000,330000,detached,south_east,1,1980,,,,,
45.5531514,0,1,0,3,1,Mercier / Hochelaga / Maisonneuve,negotiable,0,0,0,0,0,0,1,0,116.13,29,0,0,5.97,-73.54704709999999,1,2421 avenue Desjardins,2,0,0,0,6,0,0,0,3,0,0,http://duproprio.com//house-for-sale-mercier-hochelaga-maisonneuve-quebec-en-576357,0,1,1,0,8.53,2015,5,0,0,342333,408000,390000,new_construction,north,,2013,,,1,,
45.5456311,0,1,0,2,1,Ahuntsic / Cartierville,make_an_offer,0,0,0,0,1,0,0,1,120.77,194,0,0,60.39,-73.67587800000001,0,10795 rue Verville,2,1,1,1,8,1,0,0,4,0,0,http://duproprio.com//house-for-sale-ahuntsic-cartierville-quebec-en-548233,1,1,1,1,261.24,2015,5,0,0,482900,645000,624600,,east,1,1953,salle_de_bain_complï¿½tement_rï¿½novï¿½e_ï¿½_l_ï¿½tage_et_une_salle_de_bain_neuve_au_sous_sol,chambre_des_maï¿½tres_rï¿½novï¿½e_ï¿½clairage_halogï¿½ne_1_garde_robe_10_l_x_2_p_x_8_5_h_avec_3_portes_miroir_coulissantes_1_garde_robe_5_l_x_2_p_x_8_5_h_lumineuse_2_autres_chambres_rï¿½novï¿½es_ï¿½_l_ï¿½tage_et_une_neuve_au_sous_sol,,,
45.442359,0,1,0,2,1,Dorval / Dorval Island,by_appointment,0,0,0,0,0,1,0,0,162.58,60,0,0,10.67,-73.74398739999998,0,247 rue Louise Lamy,2,1,0,0,7,1,0,1,3,0,0,http://duproprio.com//house-for-sale-dorval-quebec-en-586633,0,1,1,0,12.22,2015,5,0,0,,,,2_storey,east,1,1986,,,,,
45.600557359383444,0,1,0,2,1,Mercier / Hochelaga / Maisonneuve,with_garage,0,0,0,0,0,0,0,0,70.23,64,0,0,12.8,-73.54239463806152,0,5573 rue Hyppolyte-Lanctï¿½t,2,0,0,0,7,0,0,0,3,0,0,http://duproprio.com//house-for-sale-mercier-hochelaga-maisonneuve-quebec-en-316594,0,1,1,0,29.26,2012,5,0,1,,,,townhouse,north_east,1,1997,,,,,
45.62512075047282,0,1,0,2,1,Riviï¿½re des Prairies,new_price,0,0,1,0,0,0,0,0,217.86,61,0,0,14.94,-73.59560966491699,1,11653 rue Sylvia Daoust,3,1,0,0,,0,0,0,3,0,0,http://duproprio.com//home-for-sale-riviere-des-prairies-quebec-en-316098,0,1,1,1,26.52,2012,5,0,0,,598000,585000,detached,south_west,1,2009,deux_salles_de_bain_au_2e_ï¿½tage_et_un_salle_de_bain_au_sous_sol,chambre_maï¿½tre_15_2_x_16_4_chambre_2_12_0_x_17_10_chambre_3_11_9_x_11_10,,,
45.4565551,0,0,1,2,1,South-West Montreal,negotiable,0,0,0,0,0,0,0,0,178.37,106,0,0,12.19,-73.5930165,0,2105 Holy Cross,2,1,0,0,12,0,0,0,4,0,0,http://duproprio.com//house-for-sale-montreal-sud-ouest-quebec-en-304990,0,1,1,1,20.88,2012,5,0,0,,,,semi_detached,,1,1982,,,,,
45.47229767620666,0,1,0,2,1,Cï¿½te-des-Neiges / Notre-Dame-de-Grï¿½ce,new_price,1,0,0,0,1,1,1,0,94.02,37,0,0,7.62,-73.6363685131073,0,4880 boulevard Grand,1,0,1,1,8,1,0,0,3,0,0,http://duproprio.com//home-for-sale-cote-des-neiges-quebec-en-315555,1,1,1,0,30.48,2012,5,0,0,392000,449000,435500,2_storey,south_west,,1950,,,,,
45.4851768,0,1,1,2,1,Cï¿½te-des-Neiges / Notre-Dame-de-Grï¿½ce,with_parking,0,0,0,0,0,0,1,0,160.07,1,0,0,6.71,-73.6170049,0,4669 avenue Victoria,2,1,0,0,9,0,0,1,5,0,0,http://duproprio.com//home-for-sale-cote-des-neiges-quebec-en-315582,0,1,1,1,32,2012,5,0,1,568800,798900,790000,semi_detached,south_east,,1922,2_salles_de_bains_complï¿½tes,4_chambres_au_2e_ï¿½tage_1_bureau_au_sous_sol,,,
45.47427635868462,0,1,0,1,1,Dollard-Des-Ormeaux,several_upgrades,0,0,0,0,0,0,0,1,106.65,277,0,0,8.53,-73.84766221046448,1,6 Mansfield,1,1,0,0,9,0,0,0,4,0,0,http://duproprio.com//home-for-sale-dollard-des-ormeaux-quebec-en-238388,0,1,1,1,27.43,2012,5,0,0,,339000,330000,open_area,west,1,,,,,,
45.5583683,0,1,0,1,1,Ahuntsic / Cartierville,with_garage,1,0,0,1,1,0,0,1,138.33,31,0,0,10.06,-73.6425589,0,9270 avenue de Galinï¿½e,2,1,1,1,12,0,0,0,7,0,0,http://duproprio.com//home-for-sale-ahuntsic-cartierville-quebec-en-323476,0,1,1,0,18.41,2012,5,0,0,,,,detached,west,,1965,,,,,
45.6730543,0,1,1,1,1,Pointe-Aux-Trembles / East Montreal,negotiable,0,0,1,0,0,0,0,0,95.32,76,0,0,11.58,-73.497181,1,1074 avenue 56e,2,1,0,0,10,0,0,1,4,0,0,http://duproprio.com//house-for-sale-pointe-aux-trembles-quebec-en-311809,0,1,1,0,25.91,2012,5,0,0,216200,269000,265000,semi_detached,south,,,2_salles_de_bain_complï¿½tes,,,,
45.4353502,0,1,0,2,1,Beaconsfield / Baie-D'Urfï¿½,no_agents,0,0,0,0,1,0,1,0,222.97,257,0,0,10.06,-73.8816944,0,474 croissant Jubilee,2,1,1,1,,0,0,0,4,0,0,http://duproprio.com//home-for-sale-beaconsfield-quebec-en-275555,0,1,1,0,31.7,2012,5,0,0,,,,2_storey,north_west,1,1974,,,,,
45.5617765,0,1,1,2,1,Ahuntsic / Cartierville,with_garage,0,0,0,0,0,0,0,0,128.76,514,0,0,6.4,-73.6479849,0,1536 rue Palmieri,2,1,0,0,9,0,0,1,4,0,0,http://duproprio.com//house-for-sale-ahuntsic-cartierville-quebec-en-222618,0,1,1,0,202.8,2012,5,0,1,325700,459000,435000,freehold_townhouse,south,1,1987,,,,,
45.600557359383444,0,1,0,2,1,Mercier / Hochelaga / Maisonneuve,with_garage,1,0,0,0,0,0,1,0,70.23,64,0,0,12.8,-73.54239463806152,0,5573 rue Hyppolyte-Lanctï¿½t,2,0,0,0,7,1,0,1,3,0,0,http://duproprio.com//house-for-sale-mercier-hochelaga-maisonneuve-quebec-en-316594,0,1,1,0,29.26,2012,5,0,1,,,,townhouse,north_east,1,1997,,,,,
45.62512075047282,0,0,0,2,1,Riviï¿½re des Prairies,new_price,0,0,1,0,0,0,0,0,217.86,61,0,0,14.94,-73.59560966491699,1,11653 rue Sylvia Daoust,3,1,0,0,,0,0,0,3,0,0,http://duproprio.com//home-for-sale-riviere-des-prairies-quebec-en-316098,0,1,1,1,26.52,2012,5,0,0,,598000,585000,detached,south_west,1,2009,deux_salles_de_bain_au_2e_ï¿½tage_et_un_salle_de_bain_au_sous_sol,chambre_maï¿½tre_15_2_x_16_4_chambre_2_12_0_x_17_10_chambre_3_11_9_x_11_10,,,
45.4565551,0,1,1,2,1,South-West Montreal,negotiable,0,0,0,0,0,0,0,0,178.37,106,0,0,12.19,-73.5930165,0,2105 Holy Cross,2,1,0,0,12,0,0,1,4,0,0,http://duproprio.com//house-for-sale-montreal-sud-ouest-quebec-en-304990,0,1,1,1,20.88,2012,5,0,0,,,,semi_detached,,1,1982,,,,,
45.47229767620666,0,1,0,2,1,Cï¿½te-des-Neiges / Notre-Dame-de-Grï¿½ce,new_price,0,0,1,0,1,1,0,0,94.02,37,0,0,7.62,-73.6363685131073,0,4880 boulevard Grand,1,0,1,1,8,1,0,0,3,0,0,http://duproprio.com//home-for-sale-cote-des-neiges-quebec-en-315555,1,1,1,0,30.48,2012,5,0,0,392000,449000,435500,2_storey,south_west,,1950,,,,,
45.4851768,0,1,0,2,1,Cï¿½te-des-Neiges / Notre-Dame-de-Grï¿½ce,with_parking,0,0,0,0,0,0,1,0,160.07,1,0,0,6.71,-73.6170049,0,4669 avenue Victoria,2,0,0,0,9,0,0,0,5,0,0,http://duproprio.com//home-for-sale-cote-des-neiges-quebec-en-315582,0,1,1,0,32,2012,5,0,0,568800,798900,790000,semi_detached,south_east,,1922,2_salles_de_bains_complï¿½tes,4_chambres_au_2e_ï¿½tage_1_bureau_au_sous_sol,,,
45.47427635868462,0,1,0,1,1,Dollard-Des-Ormeaux,several_upgrades,0,0,1,0,1,0,1,0,106.65,277,0,0,8.53,-73.84766221046448,1,6 Mansfield,1,1,1,1,9,1,0,0,4,0,0,http://duproprio.com//home-for-sale-dollard-des-ormeaux-quebec-en-238388,1,1,1,1,27.43,2012,5,0,0,,339000,330000,open_area,west,1,,,,,,
45.5583683,0,1,0,1,1,Ahuntsic / Cartierville,with_garage,1,0,0,0,1,0,0,1,138.33,31,0,0,10.06,-73.6425589,0,9270 avenue de Galinï¿½e,2,1,1,1,12,0,0,0,7,0,0,http://duproprio.com//home-for-sale-ahuntsic-cartierville-quebec-en-323476,0,1,1,0,18.41,2012,5,0,0,,,,detached,west,,1965,,,,,
45.6730543,0,1,1,1,1,Pointe-Aux-Trembles / East Montreal,negotiable,0,0,1,0,0,0,0,0,95.32,76,0,0,11.58,-73.497181,1,1074 avenue 56e,2,0,0,0,10,0,0,1,4,0,0,http://duproprio.com//house-for-sale-pointe-aux-trembles-quebec-en-311809,0,1,1,0,25.91,2012,5,0,0,216200,269000,265000,semi_detached,south,,,2_salles_de_bain_complï¿½tes,,,,
45.4353502,0,1,0,2,1,Beaconsfield / Baie-D'Urfï¿½,no_agents,0,0,0,0,1,0,1,0,222.97,257,0,0,10.06,-73.8816944,0,474 croissant Jubilee,2,0,1,1,,0,0,0,4,0,0,http://duproprio.com//home-for-sale-beaconsfield-quebec-en-275555,0,1,1,0,31.7,2012,5,0,0,,,,2_storey,north_west,1,1974,,,,,
45.5617765,0,1,1,2,1,Ahuntsic / Cartierville,with_garage,0,0,0,0,0,0,0,0,128.76,514,0,0,6.4,-73.6479849,0,1536 rue Palmieri,2,1,0,0,9,0,0,0,4,0,0,http://duproprio.com//house-for-sale-ahuntsic-cartierville-quebec-en-222618,0,1,1,0,202.8,2012,5,0,0,325700,459000,435000,freehold_townhouse,south,1,1987,,,,,
45.443662956863186,0,1,0,2,1,Lachine,with_garage,0,0,0,0,0,0,0,0,136.57,48,0,0,10.67,-73.69397163391113,1,849 rue Gameroff,2,1,0,0,8,0,0,0,3,0,0,http://duproprio.com//house-for-sale-lachine-quebec-en-318800,0,1,1,0,211.08,2012,5,0,0,,,,townhouse,north_west,1,2005,bath_and_shower_are_separed,walk_in_in_the_master_bedroom,,,
45.53331142594284,0,1,1,1,1,Ahuntsic / Cartierville,available_now,0,0,1,0,0,0,0,0,102.19,102,0,0,11.77,-73.70095610618591,1,11870 rue Jean Massï¿½,1,1,0,0,6,0,0,0,4,0,0,http://duproprio.com//home-for-sale-ahuntsic-cartierville-quebec-en-304270,0,1,1,0,30.48,2012,5,0,0,,,,detached,west,1,,,,,,
45.5376813,0,1,1,2,1,Villeray / St-Michel / Parc-Extension,with_parking,0,0,1,0,0,0,0,0,209.03,11,0,0,13.72,-73.6172287,1,7245 avenue Henri-Julien,1,1,0,0,,0,0,0,4,0,0,http://duproprio.com//home-for-sale-villeray-st-michel-parc-extension-quebec-en-317322,0,1,1,1,174.2,2012,5,0,1,428400,849000,851000,2_storey,east,1,1925,,,,,
45.4884209,0,1,1,2,1,Dollard-Des-Ormeaux,negotiable,0,0,0,0,1,0,1,0,176.52,333,0,0,11.58,-73.7978799,0,20 rue Davignon,1,1,0,1,,0,0,0,5,0,0,http://duproprio.com//house-for-sale-dollard-des-ormeaux-quebec-en-258286,0,1,1,0,30.48,2012,5,0,0,195200,290000,282000,townhouse,,1,1975,,spacious_bedrooms,,,
45.47960265677388,0,1,0,2,1,Dollard-Des-Ormeaux,with_garage,0,0,0,0,0,1,1,0,100.34,60,0,0,9.14,-73.83413314819336,0,10 rue Dauphin,1,0,0,0,9,0,0,0,3,0,0,http://duproprio.com//house-for-sale-dollard-des-ormeaux-quebec-en-313696,0,1,1,0,245.82,2012,4,0,1,203200,238000,228000,townhouse,east,1,1974,agrandie_donnant_ï¿½galement_accï¿½s_ï¿½_la_chambre_des_maï¿½tres,2_chambres_ï¿½_couchers_avec_walk_in_l_autre_avec_grand_garde_robe,,,
45.6601647953337,0,1,0,2,1,Pointe-Aux-Trembles / East Montreal,several_upgrades,0,0,0,0,0,0,0,1,132.67,6,0,0,10.36,-73.50417852401733,0,1860 avenue 36ï¿½me,1,1,0,0,9,0,1,0,4,0,0,http://duproprio.com//house-for-sale-pointe-aux-trembles-quebec-en-328154,0,1,1,0,29.26,2012,4,0,0,185800,289500,277500,2_storey,south,1,1986,rï¿½novï¿½e,1,,,
45.558327,0,1,0,2,1,Ahuntsic / Cartierville,,0,0,0,0,1,0,1,0,137.78,93,0,0,8.53,-73.668632,0,725 boulevard Gouin Est,2,1,1,0,,0,0,1,3,0,0,http://duproprio.com//home-for-sale-ahuntsic-cartierville-quebec-en-305021,0,1,1,0,35.97,2012,4,0,1,,,,townhouse,,,1939,,,,,
45.536565539087604,0,1,1,3,1,Le Plateau-Mont-Royal,with_garage,0,0,0,0,0,0,0,0,141.31,50,0,0,12.13,-73.58733505010605,0,1506 rue Pauline Julien,2,1,0,0,8,0,0,1,4,0,0,http://duproprio.com//house-for-sale-plateau-mont-royal-quebec-en-316260,0,1,1,0,13.11,2012,4,0,0,,,,divided_co_ownership,west,,2000,1_salle_de_bain_avec_douche_et_bain_et_une_salle_de_bain_avec_douche,3_grandes_chambres_plus_espace_bureau,,,
45.4456526,0,1,0,2,1,Lachine,by_appointment,0,0,1,0,0,0,0,0,118.92,6,0,0,12.19,-73.6949803,1,3354 rue J.-A. Descarries,1,0,0,0,9,0,0,0,3,0,0,http://duproprio.com//house-for-sale-lachine-quebec-en-317929,0,1,1,0,172.21,2012,4,0,0,,,,freehold_townhouse,north,1,1992,plancher_de_ceramique_douche_en_verre_bain,plancher_de_bois_franc_rangements,,,
45.475386,0,1,0,2,1,South-West Montreal,no_agents,0,0,0,0,0,0,0,0,154.03,39,0,0,11.58,-73.566106,0,2679 rue Knox,1,1,0,0,10,0,0,1,4,0,0,http://duproprio.com//house-for-sale-montreal-sud-ouest-quebec-en-319491,0,1,1,0,27.43,2012,4,0,1,312000,489000,462500,townhouse,west,1,1900,skylight,,,,
45.4544813,0,1,0,1,1,South-West Montreal,completely_renovated,0,0,1,0,0,0,0,0,157.94,10,0,0,7.62,-73.5990403,1,6329 rue Dumas,2,0,0,1,9,0,0,0,3,0,0,http://duproprio.com//home-for-sale-montreal-sud-ouest-quebec-en-325779,0,1,1,0,7.62,2012,4,0,0,,,,open_area,,,,11_x_10_410_x_8_9_p,12_7_x_9_9_p_9_7_x_1111_5_x_11,,,
45.647423360698966,0,1,0,2,1,Riviï¿½re des Prairies,negotiable,0,0,0,0,0,1,1,0,138.98,68,0,0,10.36,-73.58264923095703,0,12539 avenue Pierre Baillargeon,2,1,0,1,,0,0,1,3,0,0,http://duproprio.com//house-for-sale-riviere-des-prairies-quebec-en-310758,0,1,1,1,30.48,2012,4,0,0,,,,semi_detached,east,1,1985,,,,,
45.6376851,0,1,0,1,1,Pointe-Aux-Trembles / East Montreal,with_parking,0,0,1,0,0,0,0,0,89.19,24,0,0,7.32,-73.5005209,0,1070 avenue 5e,1,1,1,1,5,0,0,0,3,0,0,http://duproprio.com//home-for-sale-pointe-aux-trembles-quebec-en-321654,0,1,1,0,25.91,2012,4,0,0,170800,245500,236500,semi_detached,,,1955,,ccm,,,
45.4800723,0,1,1,2,1,Dollard-Des-Ormeaux,no_agents,0,0,0,0,1,0,0,1,213.68,16,0,0,9.17,-73.8313812,1,4581 rue Lake,4,1,1,1,15,0,0,0,5,0,0,http://duproprio.com//home-for-sale-dollard-des-ormeaux-quebec-en-323379,1,1,1,0,30.45,2012,4,0,0,356100,416900,410000,2_storey,north,2,1975,2_full_bathrooms_on_2nd_floor_1_powder_room_on_the_main_level_and_1_in_the_basement,4_bedrooms_on_2nd_floor_and_1_in_the_basement,,,
45.6603068,0,1,1,2,1,Riviï¿½re des Prairies,available_now,0,0,1,0,0,0,0,0,126.4,104,0,0,6.1,-73.5506556,1,12283 rue Andre-Michaux,1,0,0,0,9,0,0,1,3,0,0,http://duproprio.com//house-for-sale-riviere-des-prairies-quebec-en-301940,0,1,1,1,6.1,2012,4,1,1,213200,229000,229000,townhouse,north_east,1,2004,douche_sï¿½parï¿½e,,,,
45.4386884,0,1,1,2,1,Kirkland,no_agents,0,0,0,0,1,0,1,1,155.52,13,0,0,12.19,-73.8937524,0,30 rue des Hirondelles,1,0,0,1,9,0,0,1,3,0,0,http://duproprio.com//home-for-sale-kirkland-quebec-en-323403,0,1,1,0,497.03,2012,4,0,0,,,,2_storey,,1,2003,,,,,
45.5728859,0,1,1,1,1,Mercier / Hochelaga / Maisonneuve,inground_pool,0,0,0,0,0,0,0,0,111.48,32,0,0,15.24,-73.542319,0,2917 rue Lacordaire,2,1,0,0,5,0,1,1,2,0,1,http://duproprio.com//home-for-sale-mercier-hochelaga-maisonneuve-quebec-en-303966,0,1,1,0,25.3,2012,4,0,0,245600,359000,342000,semi_detached,east,,1950,une_au_sous_sol,chambre_ouverte_au_sous_sol,,,
45.53215,0,0,0,2,1,Rosemont / La Petite Patrie,no_agents,0,0,0,0,1,0,0,0,139.35,49,0,0,9.14,-73.6073762,0,6529 avenue de Gaspï¿½,1,1,0,0,8,0,0,0,2,0,0,http://duproprio.com//home-for-sale-rosemont-petite-patrie-quebec-en-313253,1,1,1,0,21.34,2012,4,0,0,,503000,489000,2_storey,east,1,1910,salle_d_eau_au_rez_de_chaussï¿½_et_salle_de_bain_ï¿½_l_ï¿½tage,2_chambres_avec_possibilitï¿½_d_une_troisiï¿½me,,,
45.667216,0,1,1,2,1,Pointe-Aux-Trembles / East Montreal,updated_price,0,0,1,0,0,0,1,0,139.35,175,1,0,12.19,-73.5158147,0,3885 avenue 43e,2,1,0,0,,0,1,1,4,0,1,http://duproprio.com//home-for-sale-pointe-aux-trembles-quebec-en-289000,0,1,1,0,32.61,2012,4,0,0,,399900,390000,open_area,north_east,,1990,,,,,
45.4758264,0,1,1,2,1,Cï¿½te-des-Neiges / Notre-Dame-de-Grï¿½ce,with_garage,1,0,0,0,0,0,1,0,106.28,49,0,0,13.41,-73.6106115,0,3482 avenue Northcliffe,3,1,0,0,10,0,0,0,5,0,0,http://duproprio.com//house-for-sale-cote-des-neiges-quebec-en-313387,0,1,1,0,26.82,2012,4,0,0,,,,2_storey,west,1,1922,3_salles_de_bains_complï¿½tes,4_chambres_bureau,,,
45.5605867,0,1,1,1,1,Ahuntsic / Cartierville,,0,0,0,0,1,0,0,1,,1,0,0,,-73.6499112,0,9772 avenue Hamel,1,1,1,0,6,0,0,1,3,0,0,http://duproprio.com//home-for-sale-ahuntsic-cartierville-quebec-en-325104,0,1,1,0,188.1,2012,4,0,1,,,,semi_detached,,1,,,2_1,,,
45.5102758,0,1,1,3,1,St-Laurent,with_garage,0,0,0,0,0,0,0,0,222.97,246,0,0,12.19,-73.7143724,1,2844 rue De L'ï¿½cu,1,1,0,0,12,0,0,0,4,0,0,http://duproprio.com//house-for-sale-st-laurent-quebec-en-273517,0,1,1,1,30.48,2012,4,0,0,,685000,650000,link,south,1,2006,douche_en_cï¿½ramique_avec_portes_en_verre_trempï¿½_deux_lavabos_robinetterie_haut_de_gamme_la_plomberie_a_ï¿½tï¿½_prï¿½vue_pour_une_deuxiï¿½me_salle_de_bain_ï¿½_la_mezzanie,,,,
45.5295227,0,1,1,2,1,"Ville-Marie (downtown, old Mtl)",,0,0,0,0,1,0,1,1,130.81,26,0,0,9.75,-73.5622071,0,2347 rue de Bordeaux,1,1,0,1,9,0,0,0,3,0,0,http://duproprio.com//house-for-sale-montreal-downtown-ville-marie-quebec-en-317463,1,1,1,0,25,2012,4,0,0,313600,579000,552000,2_storey,east,1,,,,,,
45.5065987,0,1,0,2,1,L'ile-Bizard / Sainte-Geneviï¿½ve,inground_pool,0,0,0,0,1,0,0,1,133.41,83,1,0,10.36,-73.8648833,0,411 rue Marcelin,1,1,0,1,10,0,1,0,3,0,1,http://duproprio.com//home-for-sale-ile-bizard-quebec-en-304814,1,1,1,0,37.49,2012,4,0,0,325000,388000,388000,2_storey,south,1,,,,,,
45.5824276,0,1,0,2,1,North Montreal,with_garage,0,0,0,1,1,0,0,0,140.1,42,0,0,8.84,-73.6424589,0,10445 avenue De Belleville,3,0,1,1,10,0,0,0,4,0,0,http://duproprio.com//home-for-sale-north-montreal-quebec-en-309045,0,1,1,0,24.38,2012,4,0,0,,,,detached,east,,1928,3_salles_de_bain_complï¿½tes_2_bains_et_1_douche,3_chambres_ï¿½_l_ï¿½tage_1_au_sous_sol,,,
45.6737373,0,1,1,2,1,Riviï¿½re des Prairies,updated_price,0,0,0,0,0,0,0,0,206.24,315,0,0,11.28,-73.5370268,0,11268 boulevard Perras,3,0,1,0,12,0,0,1,4,0,0,http://duproprio.com//home-for-sale-riviere-des-prairies-quebec-en-259461,0,1,1,1,30.48,2012,4,0,0,,539000,525000,executive,south_east,1,2007,ï¿½quipement_de_qualitï¿½_supï¿½rieure,4_chambres_ï¿½_l_ï¿½tage_2_au_sous_sol_possibilitï¿½_de_retirer_les_murs_pour_ne_faire_qu_une_seule_grande_piece,,,
45.58731433313998,0,0,0,2,1,Mercier / Hochelaga / Maisonneuve,best_price_in_the_area,0,0,0,0,0,0,0,0,124.86,11,0,0,12.8,-73.53617191314697,1,3059 Anne Hï¿½bert,1,1,0,0,9,0,0,0,2,0,0,http://duproprio.com//house-for-sale-mercier-hochelaga-maisonneuve-quebec-en-323109,0,1,1,0,151.73,2012,4,0,0,270700,374900,365500,townhouse,east,2,2006,une_salle_de_bain_avec_bain_et_douche_sï¿½parï¿½s_ï¿½_l_ï¿½tage_2_salles_d_eau_complï¿½tes_avec_toilettes_au_r_c_et_au_sous_sol,2_possibilitï¿½_d_une_3e_au_sous_sol,,,
45.5506079,0,1,0,2,1,Ahuntsic / Cartierville,with_parking,0,0,0,0,1,0,1,1,148.64,61,0,0,,-73.6685505,0,10562 rue Grande-Allï¿½e,1,0,0,0,9,0,0,1,3,0,0,http://duproprio.com//home-for-sale-ahuntsic-cartierville-quebec-en-309771,1,1,1,0,232.26,2012,4,0,1,,,,2_storey,south_west,2,1937,rï¿½novï¿½e,chambre_des_maï¿½tres_plus_2_chambres_au_2e_ï¿½tage_possibilitï¿½_d_une_autre_chambre_au_sous_sol,,,
45.4372561,0,1,0,2,1,Lachine,by_appointment,0,0,0,0,1,0,0,0,122.54,22,0,0,122.54,-73.6950735,0,3450 rue Broadway,1,1,1,1,6,0,0,0,3,0,0,http://duproprio.com//home-for-sale-lachine-quebec-en-320441,0,1,1,0,22.25,2012,4,0,0,,339000,328000,2_storey,north_west,1,1948,,10_128_4_99_7_10,,,
45.560458337238174,0,1,0,2,1,Ahuntsic / Cartierville,,0,0,1,0,0,0,0,0,95.88,11,0,0,13.11,-73.6592960357666,1,10379 rue Chambord,2,1,0,0,7,0,0,0,3,0,0,http://duproprio.com//house-for-sale-ahuntsic-cartierville-quebec-en-319811,0,1,1,0,30.48,2012,4,0,0,,,,2_storey,,1,2008,,,,,
45.69290125579731,0,1,0,2,1,Pointe-Aux-Trembles / East Montreal,by_appointment,0,0,0,0,1,1,1,0,124.86,80,0,0,9.75,-73.48390102386475,0,"15861 place Louise-Edvina, Montrï¿½al",1,0,0,1,6,0,0,1,3,0,0,http://duproprio.com//house-for-sale-pointe-aux-trembles-quebec-en-304473,1,1,1,0,409.99,2012,4,0,1,,,,semi_detached,south_west,1,1988,bain_avec_douche_toilette_ï¿½vier_avec_vanitï¿½,139x_136_walk_in_67x_67_105x_117_99x_93,,,
45.5152805,0,1,0,2,1,Mount-Royal,by_appointment,0,0,0,0,1,1,1,0,185.81,323,0,0,12.19,-73.6367383,0,18 Henley,1,0,1,0,12,1,0,0,4,0,0,http://duproprio.com//home-for-sale-mount-royal-quebec-en-254889,1,1,1,1,15.24,2012,4,1,0,,,,detached,south,1,1949,,,,,
45.442880095461206,0,1,1,2,1,Lachine,inground_pool,0,0,0,0,0,0,1,0,159.79,63,0,0,9.14,-73.6974048614502,0,735 avenue 36,2,0,0,0,8,0,0,0,3,0,0,http://duproprio.com//home-for-sale-lachine-quebec-en-307412,0,1,1,0,12.19,2012,4,0,1,399300,589000,537500,2_storey,west,,1985,sdb_1,chambre_1,,,
45.4450369,0,1,0,2,1,Lachine,with_garage,0,0,0,0,1,0,1,1,130.06,27,0,0,10.67,-73.6945986,0,3226 rue Anatole-Carignan,1,1,0,1,10,0,0,0,3,0,0,http://duproprio.com//house-for-sale-lachine-quebec-en-316214,1,1,1,0,20.11,2012,4,0,0,394400,454900,454900,2_storey,south,1,2005,douche_indï¿½pendante_bain,walk_in_attenant_ï¿½_la_chambre_principale,,,
45.4762408,0,1,0,2,1,Cï¿½te-des-Neiges / Notre-Dame-de-Grï¿½ce,with_parking,1,0,0,0,1,0,1,0,122.63,50,0,0,18.29,-73.6276469,0,4527 avenue Harvard,1,0,0,0,9,0,0,0,4,0,0,http://duproprio.com//house-for-sale-cote-des-neiges-quebec-en-305081,0,1,1,0,28.11,2012,4,1,1,,,,undivided_co_ownership,east,,1928,plancher_chauffant,3_chambres_fermï¿½es_regroupï¿½es_1_bureau_au_solarium_sous_sol_fini,,,
45.5916505,0,1,0,2,1,Anjou,no_agents,0,0,0,0,0,0,1,0,105.91,31,0,0,9.14,-73.5519698,0,6186 avenue des Jalesnes,1,0,0,0,,0,0,1,3,0,0,http://duproprio.com//house-for-sale-anjou-quebec-en-314664,0,1,1,0,25.91,2012,4,0,1,,345000,340000,link,south_west,1,1972,,possibilitï¿½_d_une_quatrieme_au_sous_sol,,,
45.5954382,0,1,1,1,1,Mercier / Hochelaga / Maisonneuve,several_upgrades,0,0,1,1,1,0,1,0,85.94,79,0,0,7.62,-73.5246495,1,8130 rue Massicotte,2,0,1,1,9,0,0,0,3,0,0,http://duproprio.com//home-for-sale-mercier-hochelaga-maisonneuve-quebec-en-303235,0,1,1,0,24.38,2012,4,0,0,274600,368000,350000,detached,south,,1951,2_salles_de_bain_complï¿½tes,,,,
45.535095,0,1,0,2,1,Rosemont / La Petite Patrie,completely_renovated,0,0,0,0,0,0,0,0,130.81,28,0,0,9.75,-73.6109905,1,6751 avenue Henri Julien,1,1,0,0,5,0,0,1,3,0,0,http://duproprio.com//home-for-sale-rosemont-petite-patrie-quebec-en-314611,0,1,1,0,12.8,2012,3,0,1,,569000,569000,2_storey,south_east,1,1910,1_baignoir_et_1_douche,,,,
45.462154,0,1,1,2,1,L'Ile Des Soeurs,,0,0,0,0,1,0,1,0,133.78,13,0,0,10.97,-73.547827,0,625 rue de La Noue,2,0,1,1,10,0,0,0,3,0,0,http://duproprio.com//house-for-sale-ile-des-soeurs-quebec-en-318710,0,1,1,0,178,2012,3,1,0,,,,townhouse,,1,1992,1_salle_de_bain_rï¿½novï¿½e_et_1_salle_de_bain_neuve,chambres_avec_planchers_de_bois,,,
45.4760633,0,1,1,1,1,South-West Montreal,,0,0,0,0,1,0,1,0,99.78,137,0,0,13.41,-73.5633563,1,2484 rue de Coleraine,1,1,0,1,,0,0,0,3,0,0,http://duproprio.com//home-for-sale-montreal-sud-ouest-quebec-en-292554,0,1,1,0,25.91,2012,3,0,0,,395000,390000,detached,south_east,1,1900,,,,,
45.5578679,0,1,1,1,1,Mercier / Hochelaga / Maisonneuve,with_garage,0,0,0,1,1,0,1,0,99.87,12,0,0,13.11,-73.5418447,0,2311 rue Sicard,1,1,1,1,7,0,0,0,3,0,0,http://duproprio.com//home-for-sale-mercier-hochelaga-maisonneuve-quebec-en-318617,0,1,1,0,30.48,2012,3,0,0,325400,410000,390000,detached,east,1,1946,salle_de_bains,,,,
45.5023058,0,1,0,2,1,Pierrefonds / Roxboro,available_now,0,0,0,0,1,1,0,1,133.16,75,0,0,110.75,-73.8515543,0,5440 rue Albert,1,0,0,1,10,1,0,0,3,0,0,http://duproprio.com//home-for-sale-pierrefonds-roxboro-quebec-en-300336,0,1,0,0,975.5,2012,3,0,0,,334900,315000,cathedral_roof,south_west,1,1957,murs_plafond_et_plancher_tout_en_cï¿½ramique_fenï¿½tre_ï¿½_bascule_donnant_au_sud,,,,
45.4732075,0,1,0,2,1,Cï¿½te-des-Neiges / Notre-Dame-de-Grï¿½ce,,0,0,0,0,0,0,0,0,162.58,16,0,0,7.62,-73.6172528,0,3809 rue Marcil,1,1,0,0,,0,0,0,4,0,0,http://duproprio.com//house-for-sale-cote-des-neiges-quebec-en-317721,0,1,1,1,7.7,2012,3,0,0,,,,townhouse,east,1,1922,2e_ï¿½tage,2e_ï¿½tage,,,
45.6411105,0,1,0,1,1,Riviï¿½re des Prairies,with_parking,0,0,0,0,0,1,0,0,83.24,380,0,0,9.75,-73.5929603,0,12525 avenue 27,1,1,0,0,7,0,0,1,3,0,0,http://duproprio.com//home-for-sale-riviere-des-prairies-quebec-en-238570,0,1,1,0,22.86,2012,3,0,0,183500,254000,245000,detached,east,,1950,refait_ï¿½_neuf,9_12_8_9_13_5_10_5,,,
45.5147013,0,1,0,2,1,St-Laurent,best_price_in_the_area,0,0,0,0,0,0,0,0,133.78,256,0,0,10.97,-73.7054961,0,2250 De la Mediterranee,1,1,1,1,,0,0,0,3,0,0,http://duproprio.com//house-for-sale-st-laurent-quebec-en-260519,0,1,1,1,32.92,2012,3,1,0,,509000,505000,townhouse,south_east,1,2001,,,,,
45.59013737177264,0,1,1,3,1,Mercier / Hochelaga / Maisonneuve,with_garage,1,0,0,0,0,0,0,0,163.51,78,0,0,12.19,-73.53492736816406,1,3080 rue Guillaume-Lahaise,1,0,0,0,9,0,0,0,3,0,0,http://duproprio.com//house-for-sale-mercier-hochelaga-maisonneuve-quebec-en-301823,0,1,1,0,26.21,2012,3,0,0,,424900,380000,townhouse,south_east,1,2008,douche_indï¿½pendante,,,,
45.600377203125184,0,1,0,2,1,Mercier / Hochelaga / Maisonneuve,available_now,0,0,0,0,0,0,0,0,144.93,1,0,0,12.8,-73.54290962219238,1,5581 rue Hippolyte-Lanctot,2,0,0,0,7,0,0,1,3,0,0,http://duproprio.com//house-for-sale-mercier-hochelaga-maisonneuve-quebec-en-319968,0,1,1,1,232.2,2012,3,1,1,336900,439900,430000,semi_detached,north_east,1,1997,1_salle_de_bain_complï¿½te_avec_bain_podium_et_douche_sï¿½parï¿½e_et_1_salle_de_bain_avec_douche_en_coin_laveuse_sï¿½cheuse,chambres_situï¿½es_ï¿½_l_ï¿½tage,,,
45.5190584,0,1,0,2,1,Outremont,,0,0,0,0,0,1,1,0,176.52,5,0,0,11.58,-73.6141802,0,745 rue Stuart,2,0,0,0,,0,0,0,4,0,0,http://duproprio.com//house-for-sale-outremont-quebec-en-317029,0,1,1,0,32.92,2012,3,0,0,,,,2_storey,,,1916,,one_of_the_bedrooms_has_been_converted_to_a_very_convenient_laundry_room,,,
45.4661303,0,0,0,1,1,Pierrefonds / Roxboro,make_an_offer,0,0,0,0,0,0,0,0,98.85,18,0,0,8.53,-73.8823374,0,4900 rue de Nanterre,2,1,0,0,11,0,0,0,3,0,0,http://duproprio.com//home-for-sale-pierrefonds-roxboro-quebec-en-314166,0,1,1,0,40.23,2012,3,0,0,245100,299000,299000,detached,,,,,,,,
45.533588,0,1,0,2,1,Le Plateau-Mont-Royal,new_price,0,0,0,0,0,0,1,1,162.58,70,0,0,10.67,-73.5842044,0,5124 rue de Lanaudiï¿½re,1,1,0,0,7,0,0,1,4,0,0,http://duproprio.com//home-for-sale-plateau-mont-royal-quebec-en-302933,0,1,1,0,22.25,2012,3,0,1,489200,695000,670000,2_storey,west,1,1910,douche_double_puit_de_lumiï¿½re,chambres_des_maï¿½tres_avec_bain_ï¿½_remous_3_chambres_dont_une_utilisï¿½e_comme_salle_de_jeu,,,
45.5578679,0,1,0,1,1,Mercier / Hochelaga / Maisonneuve,with_garage,0,0,0,1,1,0,1,1,99.87,12,0,0,13.11,-73.5418447,0,2311 rue Sicard,1,1,1,1,7,0,0,0,3,0,0,http://duproprio.com//home-for-sale-mercier-hochelaga-maisonneuve-quebec-en-318617,0,1,1,1,30.48,2012,3,0,0,325400,410000,390000,detached,east,1,1946,salle_de_bains,,,,
45.5023058,0,1,0,2,1,Pierrefonds / Roxboro,available_now,0,0,0,0,1,1,0,1,133.16,75,0,0,110.75,-73.8515543,0,5440 rue Albert,1,0,0,1,10,1,0,0,3,0,0,http://duproprio.com//home-for-sale-pierrefonds-roxboro-quebec-en-300336,0,1,0,0,975.5,2012,3,0,0,,334900,315000,cathedral_roof,south_west,1,1957,murs_plafond_et_plancher_tout_en_cï¿½ramique_fenï¿½tre_ï¿½_bascule_donnant_au_sud,,,,
45.4732075,0,1,0,2,1,Cï¿½te-des-Neiges / Notre-Dame-de-Grï¿½ce,,0,0,0,0,0,0,0,1,162.58,16,0,0,7.62,-73.6172528,0,3809 rue Marcil,1,1,0,1,,0,0,0,4,0,0,http://duproprio.com//house-for-sale-cote-des-neiges-quebec-en-317721,0,1,1,0,7.7,2012,3,0,0,,,,townhouse,east,1,1922,2e_ï¿½tage,2e_ï¿½tage,,,
45.6411105,0,1,0,1,1,Riviï¿½re des Prairies,with_parking,0,0,0,0,0,1,0,0,83.24,380,0,0,9.75,-73.5929603,0,12525 avenue 27,1,1,0,0,7,0,0,1,3,0,0,http://duproprio.com//home-for-sale-riviere-des-prairies-quebec-en-238570,0,1,1,0,22.86,2012,3,0,0,183500,254000,245000,detached,east,,1950,refait_ï¿½_neuf,9_12_8_9_13_5_10_5,,,
45.5147013,0,1,0,2,1,St-Laurent,best_price_in_the_area,0,0,0,0,0,0,1,0,133.78,256,0,0,10.97,-73.7054961,0,2250 De la Mediterranee,1,0,1,1,,1,0,1,3,0,0,http://duproprio.com//house-for-sale-st-laurent-quebec-en-260519,0,1,1,1,32.92,2012,3,1,0,,509000,505000,townhouse,south_east,1,2001,,,,,
45.59013737177264,0,1,1,3,1,Mercier / Hochelaga / Maisonneuve,with_garage,1,0,1,0,0,0,0,0,163.51,78,0,0,12.19,-73.53492736816406,0,3080 rue Guillaume-Lahaise,1,0,0,0,9,0,0,0,3,0,0,http://duproprio.com//house-for-sale-mercier-hochelaga-maisonneuve-quebec-en-301823,0,1,1,0,26.21,2012,3,0,0,,424900,380000,townhouse,south_east,1,2008,douche_indï¿½pendante,,,,
45.600377203125184,0,1,1,2,1,Mercier / Hochelaga / Maisonneuve,available_now,0,0,1,0,0,0,0,0,144.93,1,0,0,12.8,-73.54290962219238,1,5581 rue Hippolyte-Lanctot,2,0,0,0,7,0,0,0,3,0,0,http://duproprio.com//house-for-sale-mercier-hochelaga-maisonneuve-quebec-en-319968,0,1,1,1,232.2,2012,3,0,0,336900,439900,430000,semi_detached,north_east,1,1997,1_salle_de_bain_complï¿½te_avec_bain_podium_et_douche_sï¿½parï¿½e_et_1_salle_de_bain_avec_douche_en_coin_laveuse_sï¿½cheuse,chambres_situï¿½es_ï¿½_l_ï¿½tage,,,
45.5190584,0,1,0,2,1,Outremont,,0,0,0,0,0,1,1,0,176.52,5,0,0,11.58,-73.6141802,0,745 rue Stuart,2,1,0,0,,0,0,0,4,0,0,http://duproprio.com//house-for-sale-outremont-quebec-en-317029,0,1,1,0,32.92,2012,3,0,0,,,,2_storey,,,1916,,one_of_the_bedrooms_has_been_converted_to_a_very_convenient_laundry_room,,,
45.4661303,0,1,0,1,1,Pierrefonds / Roxboro,make_an_offer,0,0,1,0,0,1,1,0,98.85,18,0,0,8.53,-73.8823374,0,4900 rue de Nanterre,2,1,0,0,11,0,0,0,3,0,0,http://duproprio.com//home-for-sale-pierrefonds-roxboro-quebec-en-314166,0,1,1,0,40.23,2012,3,0,0,245100,299000,299000,detached,,,,,,,,
45.533588,0,1,0,2,1,Le Plateau-Mont-Royal,new_price,0,0,0,0,0,0,1,1,162.58,70,0,0,10.67,-73.5842044,0,5124 rue de Lanaudiï¿½re,1,1,0,0,7,0,0,1,4,0,0,http://duproprio.com//home-for-sale-plateau-mont-royal-quebec-en-302933,0,1,1,0,22.25,2012,3,0,1,489200,695000,670000,2_storey,west,1,1910,douche_double_puit_de_lumiï¿½re,chambres_des_maï¿½tres_avec_bain_ï¿½_remous_3_chambres_dont_une_utilisï¿½e_comme_salle_de_jeu,,,
45.4660686,0,1,1,2,1,Pierrefonds / Roxboro,available_now,0,0,0,1,1,1,0,0,146.32,26,0,0,9.14,-73.8891276,0,17851 rue Gouin Ouest,1,1,1,1,8,0,0,0,3,0,0,http://duproprio.com//home-for-sale-pierrefonds-roxboro-quebec-en-245156,1,1,1,0,33.53,2012,3,0,0,377000,377500,370000,detached,north,2,1986,soaker_tub_seperate_shower_2_sinks,one_master_2_other_bedrooms_one_walk_in_closet_one_cedar_closet,,,
45.5435189,0,1,0,2,1,Rosemont / La Petite Patrie,no_agents,0,0,0,0,0,0,0,0,148.64,91,0,0,12.19,-73.6055642,1,6867-6869 rue de Lanaudiere,2,0,0,0,9,0,0,1,7,0,0,http://duproprio.com//house-for-sale-rosemont-petite-patrie-quebec-en-301154,0,1,1,0,34.14,2012,3,0,1,321300,595000,595000,townhouse,east,,,salle_de_bain_avec_douche_au_r_d_c_salle_de_bain_avec_bain_et_machines_ï¿½_laver_ï¿½_l_ï¿½tage,salon_cuisine_salle_ï¿½_manger_bureau_chambre_d_amie_salle_tï¿½lï¿½_bureau_ouverte_chanbre_principale_chambre_ï¿½_coucher,,,
45.5604177,0,1,1,1,1,Ahuntsic / Cartierville,negotiable,0,0,1,0,0,0,0,1,88.26,41,0,0,11.58,-73.6631124,0,10580 rue de la Roche,2,1,0,1,8,0,0,0,3,0,0,http://duproprio.com//home-for-sale-ahuntsic-cartierville-quebec-en-309573,0,1,1,0,30.48,2012,3,0,0,,,,detached,south_west,,1983,2_salles_de_bains_complï¿½te_bain_douche,2_ch_a_l_ï¿½tage_et_1_ch_au_s_sol,,,
45.4260868,0,1,1,2,1,LaSalle,with_parking,0,0,0,0,1,1,0,0,107.02,100,0,0,24,-73.6548644,0,119 rue des Oblats,1,1,1,0,5,1,0,0,3,0,0,http://duproprio.com//house-for-sale-lasalle-quebec-en-299770,0,1,1,0,28.96,2012,3,1,0,225700,304000,266000,semi_detached,east,,1955,bain_toilette_ï¿½vier,,,,
45.5452139,0,1,0,2,1,Ahuntsic / Cartierville,with_garage,0,0,0,0,1,0,1,1,120.77,33,0,0,7.92,-73.6633005,0,165 rue doublon,1,1,0,1,8,0,0,1,3,0,0,http://duproprio.com//home-for-sale-ahuntsic-cartierville-quebec-en-308730,1,1,1,0,27.43,2012,3,0,1,461400,565000,540000,2_storey,north_west,2,,entiï¿½rement_en_cï¿½ramique,planchers_de_bois_franc,,,
45.5689974,0,1,0,2,1,Rosemont / La Petite Patrie,negotiable,0,0,1,0,1,0,0,0,87.14,26,0,0,7.62,-73.5814854,0,6823 avenue 30ï¿½me,1,1,0,1,8,0,0,0,3,0,0,http://duproprio.com//home-for-sale-rosemont-petite-patrie-quebec-en-313077,0,1,1,0,12.19,2012,3,0,0,265100,359000,327500,detached,north_east,,1949,,2_ï¿½_l_ï¿½tage_1_au_sous_sol,,,
45.4365893,0,1,1,1,1,Beaconsfield / Baie-D'Urfï¿½,several_upgrades,0,0,0,0,1,0,0,0,101.45,45,0,0,7.92,-73.8508959,0,112 allï¿½e Evergreen,1,1,0,0,8,0,0,0,3,0,0,http://duproprio.com//home-for-sale-beaconsfield-quebec-en-307147,1,1,1,1,1105.55,2012,3,0,0,,400000,377000,detached,south,,1957,renovated_with_roman_tub_and_shower,bedroom_112_1x_10_4_bedroom_2_10_3x_10_9_bedroom_3_10_6x_8_7,,,
45.6058637,0,1,0,3,1,Anjou,multi_generation,0,0,0,0,0,0,1,0,278.71,102,0,0,12.19,-73.5898836,1,10109 promenade des Riverains,3,0,0,0,8,0,0,0,3,0,0,http://duproprio.com//house-for-sale-anjou-quebec-en-288975,0,1,1,0,343.93,2012,3,0,1,,599000,575000,townhouse,east,1,1991,au_sous_sol_une_salle_de_bain_avec_douche_sauna_et_spa,3_chambres_avec_plafond_cathï¿½drale,,,
45.5975399,0,1,1,1,1,Mercier / Hochelaga / Maisonneuve,no_agents,0,0,0,0,0,1,0,0,85.94,378,0,0,11.28,-73.5332133,0,8050 rue Gustave-Bleau,2,0,0,0,10,0,0,0,4,0,0,http://duproprio.com//home-for-sale-mercier-hochelaga-maisonneuve-quebec-en-236736,0,1,1,0,22.86,2012,3,0,0,328800,379500,375000,detached,south_east,,1951,2_salles_de_bains_complï¿½tes,,,,
45.56138980036413,0,1,0,3,1,Rosemont / La Petite Patrie,with_garage,0,0,0,0,0,0,0,0,92.9,36,0,0,8.82,-73.57822895050049,1,6287 avenue 21,2,0,0,0,6,0,0,0,4,0,0,http://duproprio.com//house-for-sale-rosemont-petite-patrie-quebec-en-286929,0,1,1,0,134.62,2012,3,0,0,276000,428000,420000,divided_co_ownership,south,1,1998,,,,,
45.670676733185594,0,1,0,2,1,Riviï¿½re des Prairies,no_agents,0,0,0,0,1,0,0,0,138.98,331,0,0,10.36,-73.53358626365662,0,12230 avenue 94 iï¿½me,1,1,1,1,,0,0,0,3,0,1,http://duproprio.com//home-for-sale-riviere-des-prairies-quebec-en-248631,0,1,1,0,1421.42,2012,3,1,0,,,,2_storey,west,2,1985,,chambre_1chambre_2chambre_3,,,
45.67605190428894,0,1,1,2,1,Pointe-Aux-Trembles / East Montreal,new_price,1,0,0,0,1,0,1,0,111.48,63,0,0,9.75,-73.49372863769531,0,14601 rue Notre-Dame est,1,1,1,1,9,0,0,0,3,0,0,http://duproprio.com//home-for-sale-pointe-aux-trembles-quebec-en-303298,0,1,1,0,24.38,2012,3,0,1,240300,285000,270000,link,north_east,1,1985,au_deuxiï¿½me_niveau,aux_deuxiï¿½me_niveau,,,
45.5111981,0,1,0,2,1,St-Laurent,completely_renovated,0,0,1,0,1,0,1,0,142.98,12,0,0,8.53,-73.6826,0,1625 place Decelles,2,0,0,1,12,0,0,1,4,0,0,http://duproprio.com//home-for-sale-st-laurent-quebec-en-314279,0,1,1,0,28.96,2012,3,0,1,,574499,574499,2_storey,north_west,1,1939,une_ï¿½_l_ï¿½tage_et_l_autre_incluse_dans_la_slle_d_eau_au_sous_sol,3_a_l_etage_et_1_au_sous_sol,,,
45.4597524,0,1,1,2,1,Verdun,,0,0,0,0,0,0,1,0,109.81,7,0,0,8.53,-73.5786067,0,1077 rue Willibrord,1,1,0,0,8,0,0,0,3,0,0,http://duproprio.com//house-for-sale-verdun-quebec-en-316652,0,1,1,0,,2012,3,0,0,300400,362000,362000,2_storey,,1,1992,douche_sï¿½parï¿½e,,,,
45.6039628,0,1,0,2,1,Anjou,no_agents,1,0,0,0,1,0,1,0,124.86,194,0,0,9.75,-73.5609838,0,7769 avenue Bodinier,1,1,0,0,11,0,0,0,3,0,0,http://duproprio.com//house-for-sale-anjou-quebec-en-279633,0,1,1,0,12.19,2012,3,0,0,,374900,363000,2_storey,south_west,1,1973,salle_de_bain_rï¿½novï¿½_en_2010,chambre_des_maï¿½tre_trï¿½s_grande_avec_walk_in,,,
45.65790769536887,0,1,1,2,1,Riviï¿½re des Prairies,no_agents,0,0,0,0,0,0,0,0,141.21,35,0,0,10.67,-73.55260848999023,1,10247 rue Karl-Lï¿½vï¿½que,2,1,0,0,,0,0,1,3,0,0,http://duproprio.com//home-for-sale-riviere-des-prairies-quebec-en-308100,0,1,1,0,30.48,2012,3,0,1,,,,2_storey,north_west,,2010,,chambre_des_maï¿½tres_avec_walk_in_2_chambres_tous_ï¿½_l_ï¿½tage,,,
45.578761,0,0,0,2,1,Mercier / Hochelaga / Maisonneuve,with_garage,0,0,0,0,0,0,1,0,144.93,33,0,0,11.58,-73.548034,0,6100 rue Alfred Pellan,1,0,0,0,7,0,0,0,3,0,0,http://duproprio.com//home-for-sale-mercier-hochelaga-maisonneuve-quebec-en-309124,0,1,1,0,28.53,2012,3,0,0,380033,589500,574000,townhouse,south_east,2,1996,bain_thï¿½rapeutique_lampes_infrarouges_chauffantes_douche_indï¿½pendante,chambre_principale_avec_walk_in,,,
45.4648022,0,1,0,2,1,Verdun,with_garage,0,0,0,0,0,0,1,0,201.5,33,0,0,17.04,-73.5635598,0,97 rue Hickson,2,1,0,1,12,0,0,0,7,0,0,http://duproprio.com//home-for-sale-verdun-quebec-en-309586,0,1,1,0,25.91,2012,3,0,0,,430000,430000,2_storey,north_west,,,,certaines_chambres_sont_utilisï¿½es_comme_bureau_de_travailleur_autonome_boudoir_ou_salle_ï¿½_manger,,,
45.5936128,0,0,1,2,1,Mercier / Hochelaga / Maisonneuve,with_parking,0,0,0,0,0,0,1,0,111.48,324,0,0,12.19,-73.5124046,0,8183 Josï¿½phine Marchand,2,1,0,0,,0,0,0,4,0,0,http://duproprio.com//house-for-sale-mercier-hochelaga-maisonneuve-quebec-en-249564,0,1,1,0,24.38,2012,3,0,0,,275000,270000,townhouse,south,1,1998,,chambres_sur_chaque_niveau,,,
45.4956446,0,1,1,2,1,L'ile-Bizard / Sainte-Geneviï¿½ve,by_appointment,0,0,0,0,0,0,0,0,126.35,51,0,0,9.14,-73.8733982,1,3286 boulevard Chevremont,1,0,0,0,8,0,0,1,3,0,0,http://duproprio.com//house-for-sale-ile-bizard-quebec-en-304515,0,1,1,0,15.68,2012,3,0,0,238200,322900,313000,semi_detached,east,1,1979,plancher_chauffe,plancher_en_bois_franc,,,
45.46277946850852,0,1,1,2,1,Kirkland,no_agents,0,0,0,0,0,0,0,0,153.29,58,0,0,10.67,-73.84735107421875,0,74 rue Acres,2,0,0,0,11,0,0,0,4,0,0,http://duproprio.com//home-for-sale-kirkland-quebec-en-303270,0,1,1,0,35.05,2012,3,0,0,393400,429000,412000,cathedral_roof,south_west,,1989,1_avec_bain_et_douche_et_1_avec_bain_douche,3_ï¿½_l_ï¿½tage_et_1_au_sous_sol,,,
45.5566969,0,1,0,2,1,Ahuntsic / Cartierville,to_discuss,0,0,0,0,0,1,0,0,133.78,21,0,0,12.19,-73.6585768,0,10200 avenue Pï¿½loquin,2,1,0,0,9,0,0,0,3,0,0,http://duproprio.com//home-for-sale-ahuntsic-cartierville-quebec-en-308421,0,1,1,0,30.48,2012,3,0,0,,629000,593000,detached,south,,1922,salles_de_bain_complï¿½tes_avec_bain_et_douche_en_cï¿½ramique,,,,
45.4621905,0,1,0,2,1,Cï¿½te-Saint-Luc / Hampstead / Montreal West,several_upgrades,1,0,0,0,1,0,1,1,,176,0,0,,-73.6634165,0,7916 chemin Wavell,2,1,1,1,,0,0,0,4,0,0,http://duproprio.com//home-for-sale-cote-st-luc-quebec-en-281575,0,1,1,0,668,2012,3,0,0,,,,detached,,,1956,,,,,
45.457684,0,1,0,2,1,South-West Montreal,completely_renovated,0,0,0,0,0,0,0,0,130.06,24,0,0,9.14,-73.5991548,1,5992 rue d'Aragon,1,0,0,0,9,0,0,1,3,0,0,http://duproprio.com//house-for-sale-montreal-sud-ouest-quebec-en-309613,0,1,1,0,27.43,2012,3,1,0,280000,379000,385000,townhouse,east,1,1910,,,,,
45.4825807,0,1,0,3,1,South-West Montreal,commercial_residential,1,0,0,0,0,0,0,0,182.83,21,0,0,12.5,-73.5722681,0,2348 rue Sainte-Cunï¿½gonde,2,0,0,0,7,0,0,1,3,0,0,http://duproprio.com//house-for-sale-montreal-sud-ouest-quebec-en-311427,0,1,1,0,16.15,2012,3,0,1,501400,768000,752000,townhouse,south,,1998,sdb_avec_douche_au_rc_sdb_avec_douche_et_bain_au_2e_ï¿½tage,3_chambres_fermï¿½es_avec_garde_robes,,,
45.6064936,0,1,0,3,1,Anjou,priced_to_move,0,0,1,0,0,0,1,1,127.09,172,0,0,15.26,-73.5913923,1,10172 promenade des Riverains,1,0,1,1,7,0,0,0,3,0,0,http://duproprio.com//house-for-sale-anjou-quebec-en-278757,1,1,1,1,4.57,2012,3,0,0,261700,329000,325000,townhouse,south_west,1,1999,podium_tub_with_separated_shower,,,,
45.509196,0,1,0,3,1,St-Laurent,negotiable,0,0,1,0,0,0,0,0,176.52,40,0,0,,-73.7338414,1,4597 rue Felix-Leclerc,1,1,0,1,9,0,0,0,4,0,0,http://duproprio.com//house-for-sale-st-laurent-quebec-en-304109,0,1,1,1,228.6,2012,3,0,0,368600,469000,445000,townhouse,south_east,,2001,one_bathroom_and_one_powder_room,master_room_with_walk_in,,,
45.5698935,0,1,0,1,1,Rosemont / La Petite Patrie,available_now,0,0,1,0,0,0,0,0,79.71,179,0,0,6.71,-73.5781551,1,4730 rue St-Zotique,1,0,0,1,7,0,0,0,3,0,0,http://duproprio.com//home-for-sale-rosemont-petite-patrie-quebec-en-278561,0,1,1,0,25.91,2012,3,0,0,,,,detached,south,1,1951,salle_de_bain_complï¿½te_au_rez_de_chaussï¿½e_et_wc_au_sous_sol,1_chambre_au_sous_sol_et_possibilitï¿½_d_une_autre_chambre_au_sous_sol,,,
45.44493508347172,0,1,0,2,1,Lachine,inground_pool,0,0,0,0,0,1,0,1,104.05,32,0,0,12.19,-73.69595646858215,0,3381 rue Dalbï¿½-Viau,1,1,0,1,9,1,1,1,2,0,1,http://duproprio.com//house-for-sale-lachine-quebec-en-307698,0,1,1,0,6.1,2012,3,0,0,,359000,350000,townhouse,south,1,1993,bain_podium_et_douche_encastrï¿½e,2_chambres_de_bonnes_dimensions_la_chambre_des_maï¿½tres_a_2_garde_robes_et_superbes_ogees_et_moulures_au_plafond,,,
45.6806878,0,1,1,2,1,Pointe-Aux-Trembles / East Montreal,with_garage,1,0,0,0,0,0,1,0,218.97,554,0,0,10.36,-73.503466,0,3417 Armand-Vanesse,2,0,1,1,,0,0,0,6,0,0,http://duproprio.com//house-for-sale-pointe-aux-trembles-quebec-en-192133,0,1,1,1,465.44,2012,3,1,0,315000,397000,385000,2_storey,south_east,1,1991,bain_sï¿½parï¿½_de_la_douche,chambre_des_maï¿½tres_avec_balcon,,,
45.69712778787354,0,1,0,2,1,Pointe-Aux-Trembles / East Montreal,available_now,0,0,1,0,0,0,1,0,107.02,154,0,0,9.75,-73.48930835723877,0,980 avenue 91e,1,0,0,0,6,0,0,0,3,0,0,http://duproprio.com//house-for-sale-pointe-aux-trembles-quebec-en-285590,0,1,1,0,24.08,2012,3,0,1,184000,229900,220000,2_storey,west,1,1996,bain_podium_douche_sï¿½parï¿½e_planchers_en_cï¿½ramique_et_armoire_de_rangement,2_chambres_spacieuse_au_2iï¿½me_ï¿½tage_et_1_au_sous_sol,,,
45.5509353,0,1,1,2,1,Rosemont / La Petite Patrie,with_garage,0,0,1,0,0,0,1,0,117.06,16,0,0,4.79,-73.5628569,1,3545 rue Mont-Royal Est,1,1,0,0,7,0,0,1,2,0,0,http://duproprio.com//house-for-sale-rosemont-petite-patrie-quebec-en-311512,0,1,1,0,28.04,2012,3,0,0,305600,549000,548000,townhouse,west,1,1998,,2_chambres_ï¿½_coucher_et_possibilitï¿½_d_une_troisiï¿½me_au_sous_sol,,,
45.4975639155435,0,1,0,1,1,Dollard-Des-Ormeaux,inground_pool,0,0,0,1,1,1,1,0,94.2,24,0,0,11.89,-73.79701137542725,0,"41, WoodHaven",1,0,1,1,11,0,0,1,4,0,0,http://duproprio.com//home-for-sale-dollard-des-ormeaux-quebec-en-307364,0,1,1,0,24.38,2012,3,0,0,,389000,394000,side_split,east,1,,,,,,
45.443166,0,1,0,2,1,Pointe-Claire,,0,0,0,0,0,0,1,0,135.64,18,0,0,163.7,-73.826911,0,111 avenue Highgate,1,0,1,0,9,0,0,1,4,0,0,http://duproprio.com//home-for-sale-pointe-claire-quebec-en-309661,0,1,1,0,755,2012,3,0,0,,,,,east,1,1979,,,,,
45.5441445,0,1,0,2,1,Rosemont / La Petite Patrie,with_garage,1,0,0,0,0,0,1,0,185.81,10,0,0,12.19,-73.5894144,0,5969 rue des ï¿½rables,1,1,0,0,7,0,0,1,3,0,0,http://duproprio.com//home-for-sale-rosemont-petite-patrie-quebec-en-312024,0,1,1,0,243.9,2012,3,0,1,,,,2_storey,west,1,1942,bain_douche_et_vanitï¿½,1_au_sous_sol_et_2_au_rez_de_chausï¿½e,,,
45.59751,0,1,1,2,1,Anjou,completely_renovated,0,0,0,0,0,0,0,0,130.62,138,0,0,11.28,-73.542888,1,5405 rue Joseph A Rodier,2,1,0,0,,0,0,0,3,0,0,http://duproprio.com//house-for-sale-anjou-quebec-en-289235,0,1,1,0,26.52,2012,3,0,0,309000,419000,410000,semi_detached,,,1992,,,,,
45.46435967748858,0,1,0,3,1,Pointe-Claire,best_price_in_the_area,0,0,1,1,0,0,0,0,102.19,50,0,0,7.62,-73.80091667175293,1,460 avenue Delmar,2,1,0,1,9,0,0,0,4,0,0,http://duproprio.com//home-for-sale-pointe-claire-quebec-en-302116,0,1,1,0,29.87,2012,3,0,0,,,,detached,,1,1960,,,,,
45.5425669,0,1,1,2,1,Ahuntsic / Cartierville,with_garage,0,0,1,0,0,0,0,0,106.84,24,0,0,7.62,-73.6668934,0,10190 rue Verville,1,1,1,0,10,0,0,0,3,0,0,http://duproprio.com//home-for-sale-ahuntsic-cartierville-quebec-en-304791,0,1,1,0,15.24,2012,2,0,0,374000,495000,488000,semi_detached,west,2,1954,entiï¿½rement_rï¿½novï¿½e,2_chambres_fermï¿½es_1_chambre_ouverte,,,
45.4995852,0,1,0,3,1,Pierrefonds / Roxboro,restored,0,0,0,0,0,1,0,0,114.27,983,0,0,9.14,-73.8116017,0,54 avenue 19 eme,1,0,0,0,,1,0,1,5,0,0,http://duproprio.com//home-for-sale-pierrefonds-roxboro-quebec-en-133108,1,1,1,0,38.1,2012,2,0,0,235200,359000,350000,detached,west,1,1958,,,,,
45.5420865,0,1,1,2,1,Mercier / Hochelaga / Maisonneuve,with_parking,0,0,0,0,0,0,0,0,118.92,22,0,0,6.22,-73.5482653,0,2089 rue Saint-Germain,2,1,0,0,8,0,0,0,3,0,0,http://duproprio.com//house-for-sale-mercier-hochelaga-maisonneuve-quebec-en-305218,0,1,1,1,28.96,2012,2,0,0,,389000,380000,freehold_townhouse,south,,1983,complï¿½tes,fermï¿½es,,,
45.5300111,0,0,1,2,1,Le Plateau-Mont-Royal,by_appointment,0,0,0,0,0,0,0,0,156.08,7,0,0,10.67,-73.5765417,0,4432 de Lanaudiere,2,1,0,0,9,0,0,0,4,0,0,http://duproprio.com//house-for-sale-plateau-mont-royal-quebec-en-311955,0,1,1,0,21.03,2012,2,0,0,,635000,635000,2_storey,west,,1920,,,,,
45.556461884707026,0,1,1,2,1,Mercier / Hochelaga / Maisonneuve,best_price_in_the_area,0,0,0,0,1,0,1,0,109.25,176,0,0,12.8,-73.54767322540283,1,2494 avenue Bennett,2,0,0,0,,0,0,0,3,0,0,http://duproprio.com//house-for-sale-mercier-hochelaga-maisonneuve-quebec-en-279946,0,1,1,0,314.94,2012,2,0,0,303700,435900,425000,townhouse,south_west,,2001,complï¿½te_au_deuxiï¿½me_avec_douche_au_sous_sol,deux_au_deuxiï¿½me_troisiï¿½me_au_sous_sol,,,
45.60196105708264,0,0,0,2,1,Mercier / Hochelaga / Maisonneuve,no_agents,0,0,0,0,0,1,1,0,126.72,37,0,0,9.45,-73.53772759437561,0,8336 place Fonteneau,1,1,0,0,11,0,0,0,4,0,0,http://duproprio.com//house-for-sale-mercier-hochelaga-maisonneuve-quebec-en-304777,0,1,1,0,22.66,2012,2,0,0,296800,399900,390000,semi_detached,south,2,1983,douche_indï¿½pendante_en_cï¿½ramique_automne_2011,3_ï¿½_l_ï¿½tage_plus_une_au_sous_sol_prï¿½sentement_en_bureau,,,
45.4427627,0,1,0,3,1,Kirkland,available_now,0,0,1,0,1,0,0,1,50.17,145,1,0,9.29,-73.8978478,1,55 rue Merineau,2,1,0,0,,0,1,0,4,0,1,http://duproprio.com//home-for-sale-kirkland-quebec-en-286033,0,1,1,0,557.42,2012,2,0,0,343500,469000,460000,open_area,north_west,1,1987,entiï¿½rerment_rï¿½novï¿½es,3_chambres_au_niveau_3_et_une_chambre_au_sous_sol,,,
45.533980300600945,0,1,0,2,1,Ahuntsic / Cartierville,waterfront,1,0,0,0,0,1,1,0,148.64,4,0,0,185.9,-73.72491359710693,0,12574 avenue de Rivoli,2,0,0,0,,1,0,1,3,0,0,http://duproprio.com//house-for-sale-ahuntsic-cartierville-quebec-en-245108,0,1,1,0,222,2012,2,0,0,401500,469000,465000,townhouse,,,1988,,,,,
45.5270258,0,1,0,1,1,St-Laurent,best_price_in_the_area,0,0,0,0,1,0,1,1,111.48,175,0,0,9.14,-73.6840119,0,1750 rue Lï¿½pine,2,1,1,1,12,0,0,0,4,0,0,http://duproprio.com//home-for-sale-st-laurent-quebec-en-279053,0,1,1,0,19.2,2012,2,1,0,,424000,397600,detached,north,,1953,grande_salle_de_bain_avec_bain_thï¿½rapeuthique,3_ch_au_rc_1_au_sous_sol,,,
45.5223896,0,1,0,2,1,St-Laurent,completely_renovated,0,0,0,0,0,0,1,0,130.06,15,0,0,7.62,-73.6851826,0,1550 avenue Filion,1,0,0,0,9,0,0,0,4,0,0,http://duproprio.com//house-for-sale-st-laurent-quebec-en-309051,0,1,1,0,351.45,2012,2,0,0,272100,465000,470000,semi_detached,south_west,1,1951,agrandie_et_rï¿½novï¿½e_avec_goï¿½t,,,,
45.5458366,0,0,1,2,1,Rosemont / La Petite Patrie,by_appointment,0,0,0,0,0,0,0,0,117.06,43,0,0,12.8,-73.5633142,1,4255 avenue du Midway,1,1,0,0,7,0,0,0,3,0,0,http://duproprio.com//house-for-sale-rosemont-petite-patrie-quebec-en-303261,0,1,1,0,188.04,2012,2,0,0,,,,townhouse,east,1,1999,bain_douche_et_vanitï¿½,2_chambres_ï¿½_l_ï¿½tage_et_1_au_sous_sol,,,
45.4995852,0,1,0,3,1,Pierrefonds / Roxboro,restored,0,0,0,0,0,1,1,0,114.27,983,0,0,9.14,-73.8116017,0,54 avenue 19 eme,1,0,0,0,,1,0,1,5,0,0,http://duproprio.com//home-for-sale-pierrefonds-roxboro-quebec-en-133108,1,1,1,0,38.1,2012,2,0,0,235200,359000,350000,detached,west,1,1958,,,,,
45.5420865,0,1,1,2,1,Mercier / Hochelaga / Maisonneuve,with_parking,0,0,0,0,0,0,0,0,118.92,22,0,0,6.22,-73.5482653,1,2089 rue Saint-Germain,2,1,0,0,8,0,0,0,3,0,0,http://duproprio.com//house-for-sale-mercier-hochelaga-maisonneuve-quebec-en-305218,0,1,1,1,28.96,2012,2,0,0,,389000,380000,freehold_townhouse,south,,1983,complï¿½tes,fermï¿½es,,,
45.5300111,0,1,1,2,1,Le Plateau-Mont-Royal,by_appointment,0,0,0,0,0,0,0,0,156.08,7,0,0,10.67,-73.5765417,0,4432 de Lanaudiere,2,1,0,0,9,0,0,0,4,0,0,http://duproprio.com//house-for-sale-plateau-mont-royal-quebec-en-311955,0,1,1,0,21.03,2012,2,0,1,,635000,635000,2_storey,west,,1920,,,,,
45.556461884707026,0,1,1,2,1,Mercier / Hochelaga / Maisonneuve,best_price_in_the_area,0,0,0,0,0,0,1,0,109.25,176,0,0,12.8,-73.54767322540283,0,2494 avenue Bennett,2,0,1,0,,0,0,0,3,0,0,http://duproprio.com//house-for-sale-mercier-hochelaga-maisonneuve-quebec-en-279946,0,1,1,0,314.94,2012,2,1,0,303700,435900,425000,townhouse,south_west,,2001,complï¿½te_au_deuxiï¿½me_avec_douche_au_sous_sol,deux_au_deuxiï¿½me_troisiï¿½me_au_sous_sol,,,
45.60196105708264,0,1,0,2,1,Mercier / Hochelaga / Maisonneuve,no_agents,0,0,0,0,0,0,1,0,126.72,37,0,0,9.45,-73.53772759437561,0,8336 place Fonteneau,1,1,0,0,11,0,0,0,4,0,0,http://duproprio.com//house-for-sale-mercier-hochelaga-maisonneuve-quebec-en-304777,0,1,1,0,22.66,2012,2,0,0,296800,399900,390000,semi_detached,south,2,1983,douche_indï¿½pendante_en_cï¿½ramique_automne_2011,3_ï¿½_l_ï¿½tage_plus_une_au_sous_sol_prï¿½sentement_en_bureau,,,
45.4427627,0,1,0,3,1,Kirkland,available_now,0,0,1,0,1,0,0,1,50.17,145,1,0,9.29,-73.8978478,1,55 rue Merineau,2,1,0,0,,0,1,0,4,0,1,http://duproprio.com//home-for-sale-kirkland-quebec-en-286033,0,1,1,0,557.42,2012,2,0,0,343500,469000,460000,open_area,north_west,1,1987,entiï¿½rerment_rï¿½novï¿½es,3_chambres_au_niveau_3_et_une_chambre_au_sous_sol,,,
45.533980300600945,0,1,0,2,1,Ahuntsic / Cartierville,waterfront,0,0,0,0,1,1,1,0,148.64,4,0,0,185.9,-73.72491359710693,0,12574 avenue de Rivoli,2,0,1,0,,0,0,1,3,0,0,http://duproprio.com//house-for-sale-ahuntsic-cartierville-quebec-en-245108,1,1,1,1,222,2012,2,1,0,401500,469000,465000,townhouse,,,1988,,,,,
45.5270258,0,1,0,1,1,St-Laurent,best_price_in_the_area,0,0,0,0,1,0,1,1,111.48,175,0,0,9.14,-73.6840119,0,1750 rue Lï¿½pine,2,1,1,1,12,0,1,1,4,0,1,http://duproprio.com//home-for-sale-st-laurent-quebec-en-279053,0,1,1,0,19.2,2012,2,0,0,,424000,397600,detached,north,,1953,grande_salle_de_bain_avec_bain_thï¿½rapeuthique,3_ch_au_rc_1_au_sous_sol,,,
45.5223896,0,0,0,2,1,St-Laurent,completely_renovated,0,0,0,0,0,0,1,0,130.06,15,0,0,7.62,-73.6851826,0,1550 avenue Filion,1,1,0,0,9,0,0,0,4,0,0,http://duproprio.com//house-for-sale-st-laurent-quebec-en-309051,0,1,1,0,351.45,2012,2,0,0,272100,465000,470000,semi_detached,south_west,1,1951,agrandie_et_rï¿½novï¿½e_avec_goï¿½t,,,,
45.5458366,0,0,0,2,1,Rosemont / La Petite Patrie,by_appointment,0,0,0,0,0,0,0,0,117.06,43,0,0,12.8,-73.5633142,1,4255 avenue du Midway,1,0,0,0,7,0,0,0,3,0,0,http://duproprio.com//house-for-sale-rosemont-petite-patrie-quebec-en-303261,0,1,1,0,188.04,2012,2,0,0,,,,townhouse,east,1,1999,bain_douche_et_vanitï¿½,2_chambres_ï¿½_l_ï¿½tage_et_1_au_sous_sol,,,
45.60839359673345,0,1,0,1,1,Anjou,completely_renovated,0,0,1,0,1,0,0,0,59.83,6,0,0,7.01,-73.54179382324219,0,5800 avenue des Ormeaux,1,1,0,1,7,1,0,0,2,0,0,http://duproprio.com//house-for-sale-anjou-quebec-en-309157,1,1,1,0,11.89,2012,2,0,0,214000,258500,246000,semi_detached,south,1,1965,,,,,
45.5367207,0,1,0,1,1,Ahuntsic / Cartierville,no_agents,0,0,0,0,1,0,1,1,91.51,12,0,0,10.97,-73.7076093,0,12165 rue Filion,2,1,0,0,8,0,0,0,3,0,1,http://duproprio.com//home-for-sale-ahuntsic-cartierville-quebec-en-309926,1,1,1,0,480,2012,2,0,0,,,,open_area,north_east,,1956,10x_5pi_7x_7pi,10x_1511x_1011_5x_11_5,,,
45.5027004,0,1,0,2,1,St-Laurent,with_garage,0,0,0,0,1,1,0,0,111.48,8,0,0,9.14,-73.6821931,0,2060 rue Johnson,1,1,1,1,,0,0,0,3,0,0,http://duproprio.com//home-for-sale-st-laurent-quebec-en-311408,1,1,1,1,16.15,2012,2,0,0,342800,499000,499000,detached,south,1,1953,on_the_second_level,all_three_bedroom_on_the_same_level_2,,,
45.5985873,0,1,0,2,1,North Montreal,waterfront,0,0,0,0,1,0,1,1,89.19,13,0,0,9.14,-73.6438412,0,4169 boulevard Gouin est,1,0,1,1,8,0,0,1,2,0,0,http://duproprio.com//house-for-sale-north-montreal-quebec-en-308142,1,1,1,1,19.5,2012,2,1,0,189500,269000,259000,townhouse,west,1,1992,,chambre_de_maï¿½tre_avec_une_vue_sur_la_riviï¿½re,,,
45.65724029622309,0,1,1,2,1,Riviï¿½re des Prairies,negotiable,0,0,1,0,1,1,0,0,180.6,4,0,0,10.97,-73.55031251907349,1,12076 rue Henri Christophe,2,0,1,0,11,0,0,0,3,0,0,http://duproprio.com//home-for-sale-riviere-des-prairies-quebec-en-289763,0,1,1,0,28.96,2012,2,0,0,,532000,507000,detached,south_west,1,2010,master,wood_floors_crown_moldings_in_every_room_walk_in_closet_in_master,,,
45.44562006284059,0,1,1,2,1,Lachine,divided,0,0,0,0,0,1,0,1,118.92,111,0,0,12.19,-73.69641780853271,1,3376 rue J. A. Descarries,1,1,0,0,7,0,0,1,3,0,1,http://duproprio.com//house-for-sale-lachine-quebec-en-278698,0,1,1,0,27.43,2012,2,0,0,280900,369000,354000,townhouse,north,1,1991,,2_1,,,
45.463643,0,1,0,3,1,L'Ile Des Soeurs,several_upgrades,0,0,1,0,1,0,0,0,145.3,135,0,0,8.23,-73.546241,1,477 rue de la Grande-Allï¿½e,1,1,1,0,7,0,0,0,2,0,0,http://duproprio.com//house-for-sale-ile-des-soeurs-quebec-en-286847,0,1,1,0,217,2012,2,1,0,,,,townhouse,south_west,1,2000,,2_chambres_loft_possibilitï¿½_d_une_chambre_supplï¿½mentaire_au_s_s,,,
45.4690324,0,1,0,2,1,Cï¿½te-des-Neiges / Notre-Dame-de-Grï¿½ce,priced_to_move,0,0,0,0,0,0,1,0,164.07,34,0,0,6.71,-73.6198395,1,5891 chemin de la Cï¿½te-Saint-Antoine,2,1,0,0,7,0,0,0,4,0,0,http://duproprio.com//house-for-sale-cote-des-neiges-quebec-en-303017,0,1,1,1,23.16,2012,2,0,1,425700,605000,595000,semi_detached,north_west,,1924,updated,mbr_double_room_20_1_x_13_5,,,
45.525682685954216,0,0,1,2,1,St-Laurent,new_price,0,0,0,0,0,0,0,0,107.95,125,0,0,92.9,-73.69892835617065,0,4180 boulevad Henri-Bourassa Ouest,2,1,0,0,9,0,0,0,4,0,0,http://duproprio.com//home-for-sale-st-laurent-quebec-en-285854,0,1,1,0,405.99,2012,2,0,0,,314888,308000,2_storey,,,1942,bain_et_douche_au_rez_de_chaussï¿½_douche_ï¿½_l_ï¿½tage,,,,
45.5702573,0,1,1,1,1,Rosemont / La Petite Patrie,open_house,0,0,0,0,0,0,0,0,81.89,3,0,0,11.92,-73.5760678,0,6615 avenue 34e,1,1,1,1,10,0,0,0,3,0,0,http://duproprio.com//home-for-sale-rosemont-petite-patrie-quebec-en-306849,0,1,1,0,26.21,2012,2,0,0,,399000,425000,detached,north_east,,1951,entiï¿½rement_rï¿½novï¿½e,1_chambre_avec_walk_in,,,
45.6122782,0,1,0,2,1,Mercier / Hochelaga / Maisonneuve,no_agents,0,0,0,0,1,0,1,0,136.57,12,0,0,6.55,-73.539878,1,5846 rue Eugï¿½ne-Achard,2,1,0,0,7,1,0,1,3,0,0,http://duproprio.com//house-for-sale-mercier-hochelaga-maisonneuve-quebec-en-304338,1,1,1,0,28.25,2012,2,0,0,320200,389000,385000,semi_detached,south,1,1987,,3_chambres_ï¿½_l_ï¿½tage,,,
45.50941460737619,0,1,1,3,1,St-Laurent,available_now,1,0,0,0,0,0,0,1,167.23,306,0,0,10.97,-73.71641635894775,1,2051 rue Modigliani,2,0,0,1,10,0,0,0,4,0,0,http://duproprio.com//house-for-sale-st-laurent-quebec-en-247187,0,1,1,0,25.27,2012,2,0,0,,,,townhouse,east,1,2007,salle_de_bain_avec_salle_de_lavage_au_2iï¿½me_douche_cï¿½ramique_au_3_iï¿½me,3_chambres_au_2iï¿½me_ï¿½tage_1_chambre_des_maitres_au_3iï¿½me_ï¿½tage,,,
45.5265404,0,1,0,2,1,St-Laurent,,0,0,1,0,0,0,1,0,179.02,104,0,0,11.28,-73.6680361,1,291 rue Khalil-Gibran,2,1,0,0,12,0,0,1,3,0,0,http://duproprio.com//house-for-sale-st-laurent-quebec-en-291784,0,1,1,1,262,2012,2,0,0,402000,585000,555000,townhouse,west,1,2009,salle_de_bain_principale_avec_douche_en_cï¿½ramique,chambre_des_maï¿½tres_avec_2_walk_in,,,
45.612146196317724,0,1,0,1,1,Mercier / Hochelaga / Maisonneuve,with_garage,0,0,0,0,0,0,0,0,100.15,31,0,0,13.41,-73.53685855865479,1,9184 rue Rousseau,2,1,0,0,10,0,0,0,3,0,0,http://duproprio.com//home-for-sale-mercier-hochelaga-maisonneuve-quebec-en-302909,0,1,1,0,33.83,2012,2,0,0,,339000,336000,semi_detached,south,,1984,bains_douches,,,,
45.6742893,0,1,0,1,1,Pointe-Aux-Trembles / East Montreal,negotiable,0,0,0,0,0,0,1,0,95.32,28,0,0,8.24,-73.5006282,0,1900 avenue 57iï¿½me,1,1,0,0,7,0,0,0,3,0,0,http://duproprio.com//home-for-sale-pointe-aux-trembles-quebec-en-304229,0,1,1,0,24.38,2012,2,0,0,183700,269000,253000,detached,south_west,1,1958,rï¿½novï¿½e,13_x_1013_x_1010_x_10,,,
45.6178544,0,1,1,2,1,Anjou,with_garage,1,0,0,0,0,1,0,0,129.51,55,0,0,12.5,-73.5488337,1,7535 avenue Jean-Desprez,1,0,0,0,6,0,0,1,2,0,0,http://duproprio.com//house-for-sale-anjou-quebec-en-300251,0,1,1,0,32,2012,2,0,0,217067,354900,335600,townhouse,north_east,1,1992,2_lavabos_douche_en_cï¿½ramique,bois_flottant_3e_chambre_au_sous_sol_ou_salle_de_sï¿½jour,,,
45.5029168,0,1,0,3,1,St-Laurent,with_garage,0,0,1,0,0,0,1,0,128.21,23,0,0,,-73.7243099,0,4368 rue Ernest Hemingway,1,0,1,1,,0,0,0,2,0,0,http://duproprio.com//house-for-sale-st-laurent-quebec-en-304688,0,1,1,0,191.76,2012,2,0,0,324500,367000,350000,townhouse,south_west,1,2008,bain_douche,bonne_dimension,,,
45.51293324107222,0,0,0,3,1,St-Laurent,several_upgrades,0,0,0,0,0,0,1,0,176.52,146,0,0,11.58,-73.71809005737305,0,2855 rue des ï¿½quinoxes,2,0,0,0,,0,0,0,3,0,0,http://duproprio.com//house-for-sale-st-laurent-quebec-en-281136,0,1,1,0,3.66,2012,2,0,0,,639000,630000,townhouse,south_west,1,2010,,,,,
45.4448946,0,1,0,2,1,Lachine,with_garage,1,0,0,0,0,0,0,0,111.48,16,0,0,9.14,-73.6918561,0,3090 rue Sherbrooke,1,0,0,0,7,0,0,0,3,0,0,http://duproprio.com//house-for-sale-lachine-quebec-en-305994,0,1,1,0,28.96,2012,2,0,0,247700,339900,326000,freehold_townhouse,north,1,1992,,chambre_des_maï¿½tres_spacieuse_avec_plafond_cathï¿½drale_et_walk_in,,,
45.6635937,0,1,0,2,1,Pointe-Aux-Trembles / East Montreal,price_taxes_included,0,0,1,0,1,0,0,0,151.62,125,0,0,9.75,-73.493834,1,15430 rue Notre-Dame,1,0,1,1,,0,0,0,3,0,0,http://duproprio.com//new-home-for-sale-pointe-aux-trembles-quebec-en-309619,0,1,1,1,371.61,2012,2,0,0,,,,new_house,,1,2011,roffe_de_salle_de_bain_au_sou_sol,chambre_des_maï¿½tres_avec_grand_walk_in,,,
45.4956086124512,0,1,0,2,1,L'ile-Bizard / Sainte-Geneviï¿½ve,,0,0,0,0,0,0,0,0,110.37,3,0,0,13.41,-73.8786792755127,0,26 rue Albert-Lacombe,2,0,0,0,10,0,0,1,4,0,0,http://duproprio.com//home-for-sale-ile-bizard-quebec-en-303087,0,1,1,0,30.48,2012,2,0,0,,325000,318000,detached,south_west,,1983,salle_de_bain_ï¿½_l_ï¿½tage_et_salle_de_bain_au_sous_sol_avec_laveuse_sï¿½cheuse,3_ï¿½_l_ï¿½tage_et_1_au_sous_sol,,,
45.563316527901335,0,0,0,2,1,Ahuntsic / Cartierville,with_garage,0,0,0,0,0,0,0,0,132.76,3,0,0,10.2,-73.64733874797821,0,1696 Louis-Joseph Gauthier,1,1,0,0,9,0,0,0,4,0,0,http://duproprio.com//house-for-sale-ahuntsic-cartierville-quebec-en-307567,0,1,1,0,30.48,2012,2,0,0,,,,townhouse,north_east,1,1984,bain_thï¿½rapeutique_avec_douche,trois_chambres_ï¿½_l_ï¿½tage_une_chambre_au_sous_sol_avec_lit_mural,,,
45.44953407110632,0,1,1,3,1,L'Ile Des Soeurs,,0,0,0,0,1,0,1,1,216.46,100,0,0,,-73.5511064529419,0,4 rue des Parulines,2,0,0,1,,0,0,0,3,0,0,http://duproprio.com//home-for-sale-ile-des-soeurs-quebec-en-291841,0,1,1,0,,2012,2,1,0,,869999,869900,2_storey,south,1,2005,brut_pour_salle_de_bain_au_sous_sol,possibilitï¿½_d_une_chambre_additionnelle_au_loft_et_une_autre_au_sous_sol,,,
45.49554844820246,0,1,0,2,1,L'ile-Bizard / Sainte-Geneviï¿½ve,with_garage,0,0,0,0,1,0,0,1,104.05,14,0,0,12.19,-73.87614727020264,1,617 Jacques-Bizard,2,0,1,1,10,0,1,1,4,0,1,http://duproprio.com//house-for-sale-ile-bizard-quebec-en-303616,0,1,1,0,11.58,2012,2,0,0,251600,319000,319000,semi_detached,north_east,1,1994,1_ï¿½_l_ï¿½tage_bain_douche_sï¿½parï¿½_et_1_sous_sol_avec_douche,3_chambres_ï¿½_l_ï¿½tage_dont_ch_des_maï¿½tres_avec_walk_in_1_au_sous_sol,,,
45.6089495,0,1,0,2,1,Mercier / Hochelaga / Maisonneuve,with_garage,0,0,1,0,0,0,0,1,89.19,183,0,0,9.14,-73.521711,0,2929 Aubry,2,1,1,1,8,0,0,0,2,0,0,http://duproprio.com//house-for-sale-mercier-hochelaga-maisonneuve-quebec-en-273118,1,1,1,0,24.38,2012,2,0,0,227000,295000,282000,open_area,east,,1992,,le_sous_sol_peut_servir_de_grande_chambre_de_bureau_de_salle_de_jeux_ou_de_salle_familiale,,,
45.592917,0,1,0,2,1,Mercier / Hochelaga / Maisonneuve,no_agents,0,0,0,0,0,0,0,0,87.24,19,0,0,7.62,-73.5320372,0,2995 rue Curatteau,1,1,0,0,8,0,0,0,3,0,0,http://duproprio.com//home-for-sale-mercier-hochelaga-maisonneuve-quebec-en-303062,0,1,1,0,28.65,2012,2,0,0,,279000,282000,2_storey,,1,1954,,2_chambres_ï¿½_l_ï¿½tage_et_une_chambre_au_sous_sol,,,
45.4976848,0,1,1,2,1,Dollard-Des-Ormeaux,completely_renovated,0,0,0,1,1,0,0,0,111.48,126,0,0,13.11,-73.8173954,0,33 rue Greenview,2,1,1,0,11,0,0,0,4,0,0,http://duproprio.com//home-for-sale-dollard-des-ormeaux-quebec-en-282178,1,1,1,0,36.58,2012,2,0,0,287000,409000,409000,open_area,north_east,,1962,,,,,
45.628827214520506,0,1,0,2,1,Riviï¿½re des Prairies,with_garage,0,0,0,0,0,0,0,0,124.86,271,0,0,12.8,-73.61433148384094,0,12522 rue Edmond Archambault,1,0,1,0,,0,0,0,2,0,0,http://duproprio.com//house-for-sale-riviere-des-prairies-quebec-en-252020,0,1,1,0,30.48,2012,2,1,0,214800,264900,255000,townhouse,south_east,1,1995,,,,,
45.552324,0,1,0,1,0,Villeray / St-Michel / Parc-Extension,negotiable,0,0,0,1,0,0,0,0,88.26,138,0,0,88.26,-73.600742,0,7083 avenue Louis-Hï¿½bert,1,0,1,1,5,0,0,0,3,0,0,http://duproprio.com//house-for-sale-villeray-st-michel-parc-extension-quebec-en-282976,0,0,0,1,27.43,2012,2,1,0,223300,319000,290000,townhouse,south_east,1,1922,,,,,
45.4511529,0,1,1,1,1,Pointe-Claire,no_agents,1,0,0,0,1,1,0,0,111.48,23,0,0,10.97,-73.7958643,1,38 avenue Broadview,2,1,0,0,8,0,0,1,3,0,0,http://duproprio.com//home-for-sale-pointe-claire-quebec-en-267655,1,1,1,0,76.81,2012,2,0,0,,348680,338680,detached,south_west,,1952,,,,,
45.44275965428128,0,1,1,2,1,Lachine,best_price_in_the_area,0,0,0,0,0,1,0,0,86.96,30,0,0,7.92,-73.7041425704956,1,709 avenue 43e,1,0,0,0,2,1,0,0,4,0,0,http://duproprio.com//house-for-sale-lachine-quebec-en-301927,0,1,1,0,37.16,2012,2,0,0,,299000,290000,freehold_townhouse,west,1,1970,,,,,
45.58629319909457,0,1,1,2,1,Mercier / Hochelaga / Maisonneuve,no_agents,0,0,1,0,0,0,1,0,124.86,33,0,0,12.8,-73.53273868560791,0,2765 rue Anne-Hï¿½bert,2,0,1,0,9,1,0,1,3,0,0,http://duproprio.com//house-for-sale-mercier-hochelaga-maisonneuve-quebec-en-301955,0,1,1,0,2.44,2012,2,0,1,,439900,426000,townhouse,east,,2005,1_salle_de_bain_ï¿½_l_ï¿½tage_avec_douche_et_bain_en_coin_et_une_salle_de_bain_au_sous_sol_avec_douche,2_chambres_ï¿½_l_ï¿½tage_et_une_au_sous_sol_avec_salle_de_bain_inclus,,,
45.553981,0,1,0,2,1,Rosemont / La Petite Patrie,no_agents,0,0,1,0,0,0,0,0,185.81,74,0,0,8.23,-73.5856892,0,6385 avenue 10iï¿½me,2,1,0,0,12,0,0,1,4,0,0,http://duproprio.com//home-for-sale-rosemont-petite-patrie-quebec-en-290401,0,1,1,0,34.14,2012,1,0,1,,,,detached,east,,1945,avec_bain_tourbillon_de_6_pied_et_douche_sï¿½parï¿½,4_chambres_ï¿½_l_ï¿½tage_walk_in_et_balcon_chambre_principale,,,
45.5849335,0,1,0,1,1,Mercier / Hochelaga / Maisonneuve,no_agents,0,0,1,0,0,1,0,0,100.34,18,0,0,12.19,-73.5494911,1,6620 avenue de Renty,1,1,0,1,7,0,0,0,3,0,0,http://duproprio.com//home-for-sale-mercier-hochelaga-maisonneuve-quebec-en-302696,0,1,1,0,24.38,2012,1,0,0,,419000,405000,detached,east,,1955,,,,,
45.6983655,0,1,0,2,1,Pointe-Aux-Trembles / East Montreal,new_price,0,0,0,0,1,0,1,0,167.23,81,0,0,10.97,-73.4909338,0,230 Pierre Mercure,1,1,1,1,9,0,0,0,4,0,0,http://duproprio.com//home-for-sale-pointe-aux-trembles-quebec-en-292905,0,1,1,0,851.8,2012,1,0,0,360000,399000,390000,2_storey,south_east,1,1987,renovï¿½e_en_2010,3_grandes_chambres_a_coucher_a_l_ï¿½tage_1_chambre_a_coucher_au_sous_sol,,,
45.4783373,0,1,0,2,1,South-West Montreal,completely_renovated,1,0,0,0,0,0,0,0,200.67,56,0,0,9.14,-73.5791593,0,169 rue Bourget,3,1,0,0,8,0,0,0,3,0,0,http://duproprio.com//home-for-sale-montreal-sud-ouest-quebec-en-298480,0,1,1,1,27.43,2012,1,0,0,,,,2_storey,east,,1874,,,,,
45.5070728,0,1,0,3,1,Pierrefonds / Roxboro,by_appointment,0,0,0,0,1,1,0,0,91.79,75,0,0,8.17,-73.8410406,0,12792 rue Berry,1,1,1,1,7,1,0,0,3,0,0,http://duproprio.com//home-for-sale-pierrefonds-roxboro-quebec-en-293989,1,1,1,0,21.34,2012,1,1,0,255100,285000,275000,side_split,north,,1962,renovated,1,,,
45.58560242141314,0,1,1,3,1,Mercier / Hochelaga / Maisonneuve,with_garage,0,0,0,0,0,0,0,0,195.1,217,0,0,12.19,-73.53089332580566,0,2643 Anne-Hebert,2,1,0,0,10,0,0,1,4,0,0,http://duproprio.com//house-for-sale-mercier-hochelaga-maisonneuve-quebec-en-265005,0,1,1,0,25.91,2012,1,0,0,,429000,429000,townhouse,south_east,1,2008,avec_douche_et_bain_podium_en_parfaite_condition,3_grandes_chambres_fermï¿½es_et_un_boudoir,,,
45.525021229212776,0,1,0,2,1,St-Laurent,with_garage,1,0,0,0,0,1,0,0,156.08,105,0,0,12.19,-73.66955280303955,0,925 boulevard Jules Poitras,1,1,0,0,7,0,0,1,3,0,0,http://duproprio.com//house-for-sale-st-laurent-quebec-en-286630,0,1,1,0,15.85,2012,1,0,0,,,,2_storey,west,2,2007,salle_de_bain_complï¿½te_a_l_ï¿½tage,3_chambres_a_l_ï¿½tage,,,
45.5860795,0,1,0,3,1,Mercier / Hochelaga / Maisonneuve,with_garage,1,0,1,0,0,0,0,0,162.58,101,0,0,12.19,-73.5318107,0,2646 rue Anne-Hï¿½bert,2,0,0,0,,0,0,1,3,0,0,http://duproprio.com//house-for-sale-mercier-hochelaga-maisonneuve-quebec-en-287299,0,1,1,0,36.58,2012,1,0,0,,459000,445000,townhouse,south_west,1,2008,1_salle_de_bain_avec_bain_et_douche_une_avec_douche_et_une_salle_d_eau,3_chambres_fermï¿½es_hors_sol_boudoir_pouvant_servir_de_4e_chambre,,,
45.5875754,0,1,0,2,1,Mercier / Hochelaga / Maisonneuve,with_garage,0,0,0,0,0,0,1,0,179.67,9,0,0,,-73.5342381,0,7220 rue Gratien-Gelinas,3,1,0,0,9,1,0,1,3,0,0,http://duproprio.com//house-for-sale-mercier-hochelaga-maisonneuve-quebec-en-303653,0,1,1,0,179.68,2012,1,1,1,335100,429900,412500,townhouse,south_east,1,2005,bain_tourbillon_dans_une_des_salles_de_bains,,,,
45.6648692,0,1,0,2,1,Pointe-Aux-Trembles / East Montreal,with_garage,0,0,0,0,0,0,1,0,148.64,46,0,0,9.75,-73.5146567,0,13-603 rue Cherrier,1,0,1,0,8,0,0,1,3,0,0,http://duproprio.com//house-for-sale-pointe-aux-trembles-quebec-en-298584,0,1,1,0,11.39,2012,1,1,0,,,,link,west,1,1983,8_x_5_5,chambre_principale,,,
45.62934489950665,0,1,0,2,1,Riviï¿½re des Prairies,,0,0,0,0,0,0,0,1,104.05,189,0,0,12.19,-73.61414909362793,1,12557 Gertrude-Gendreau,1,1,1,0,8,0,0,0,4,0,0,http://duproprio.com//house-for-sale-riviere-des-prairies-quebec-en-268742,0,1,1,1,6.1,2012,1,0,0,,,,townhouse,north_east,1,1996,bain_podium_et_douche_sï¿½parï¿½e,3_chambres_ï¿½_l_ï¿½tage_et_1_au_sous_sol,,,
45.4875689,0,1,1,2,1,South-West Montreal,by_appointment,0,0,0,0,0,0,1,0,96.99,72,0,0,5.49,-73.5767885,0,2263 rue Coursol,2,0,1,0,9,0,0,0,4,0,0,http://duproprio.com//home-for-sale-montreal-sud-ouest-quebec-en-293156,0,1,1,0,153.3,2012,1,0,0,325000,619000,590000,townhouse,west,,1875,,,,,
45.44604911161538,0,1,0,2,1,Lachine,divided,0,0,0,0,0,0,1,1,137.5,41,0,0,11.28,-73.68913292884827,1,2780 terrasse Aime Ashby,2,1,0,0,8,0,0,0,3,0,0,http://duproprio.com//house-for-sale-lachine-quebec-en-299082,1,1,1,0,25.91,2012,1,0,0,282000,345000,342000,townhouse,east,1,1996,one_bathroom_is_in_basement_installation_on_site,,,,
45.4317339,0,1,0,2,1,Beaconsfield / Baie-D'Urfï¿½,completely_renovated,0,0,1,1,1,1,0,0,92.9,169,0,0,7.62,-73.8767085,1,385 Windermere,1,1,1,1,9,1,0,1,4,0,0,http://duproprio.com//home-for-sale-beaconsfield-quebec-en-272481,1,1,1,0,744.2,2012,1,0,0,286800,349999,350000,detached,west,1,1972,entierement_renove,,,,
45.5962605,0,1,1,3,1,Mercier / Hochelaga / Maisonneuve,with_garage,0,0,1,0,1,0,0,1,125.42,28,0,0,10.67,-73.5390861,0,4955 rue Joseph-a-Rodier,1,1,0,0,7,0,0,0,3,0,0,http://duproprio.com//house-for-sale-mercier-hochelaga-maisonneuve-quebec-en-300239,0,1,1,0,27.03,2012,1,0,0,,,,semi_detached,east,1,1993,bain_podium_et_douche_indï¿½pendante,,,,
45.6798853,0,1,1,3,1,Pointe-Aux-Trembles / East Montreal,by_appointment,1,0,1,0,0,0,0,0,111.48,487,0,0,4.57,-73.5013892,1,14845 rue Sherbrooke Est,1,0,1,0,,0,0,1,3,0,0,http://duproprio.com//house-for-sale-pointe-aux-trembles-quebec-en-204837,0,1,1,0,26.21,2012,1,1,0,191200,259900,258800,townhouse,,1,1995,,,,,
45.525021229212776,0,1,0,2,1,St-Laurent,with_garage,0,0,0,0,0,1,0,0,156.08,105,0,0,12.19,-73.66955280303955,0,925 boulevard Jules Poitras,1,1,0,0,7,0,0,1,3,0,0,http://duproprio.com//house-for-sale-st-laurent-quebec-en-286630,1,1,1,0,15.85,2012,1,0,0,,,,2_storey,west,2,2007,salle_de_bain_complï¿½te_a_l_ï¿½tage,3_chambres_a_l_ï¿½tage,,,
45.5860795,0,0,0,3,1,Mercier / Hochelaga / Maisonneuve,with_garage,0,0,1,0,0,0,0,0,162.58,101,0,0,12.19,-73.5318107,0,2646 rue Anne-Hï¿½bert,2,0,0,0,,0,0,0,3,0,0,http://duproprio.com//house-for-sale-mercier-hochelaga-maisonneuve-quebec-en-287299,0,1,1,0,36.58,2012,1,0,0,,459000,445000,townhouse,south_west,1,2008,1_salle_de_bain_avec_bain_et_douche_une_avec_douche_et_une_salle_d_eau,3_chambres_fermï¿½es_hors_sol_boudoir_pouvant_servir_de_4e_chambre,,,
45.5875754,0,1,0,2,1,Mercier / Hochelaga / Maisonneuve,with_garage,0,0,0,0,0,0,0,0,179.67,9,0,0,,-73.5342381,0,7220 rue Gratien-Gelinas,3,1,0,0,9,0,0,1,3,0,0,http://duproprio.com//house-for-sale-mercier-hochelaga-maisonneuve-quebec-en-303653,0,1,1,0,179.68,2012,1,0,0,335100,429900,412500,townhouse,south_east,1,2005,bain_tourbillon_dans_une_des_salles_de_bains,,,,
45.6648692,0,1,0,2,1,Pointe-Aux-Trembles / East Montreal,with_garage,1,0,0,0,0,0,1,0,148.64,46,0,0,9.75,-73.5146567,0,13-603 rue Cherrier,1,0,1,0,8,0,0,1,3,0,0,http://duproprio.com//house-for-sale-pointe-aux-trembles-quebec-en-298584,0,1,1,0,11.39,2012,1,1,0,,,,link,west,1,1983,8_x_5_5,chambre_principale,,,
45.62934489950665,0,1,0,2,1,Riviï¿½re des Prairies,,1,0,1,0,0,0,0,1,104.05,189,0,0,12.19,-73.61414909362793,1,12557 Gertrude-Gendreau,1,1,0,0,8,0,0,0,4,0,0,http://duproprio.com//house-for-sale-riviere-des-prairies-quebec-en-268742,0,1,1,0,6.1,2012,1,0,0,,,,townhouse,north_east,1,1996,bain_podium_et_douche_sï¿½parï¿½e,3_chambres_ï¿½_l_ï¿½tage_et_1_au_sous_sol,,,
45.4875689,0,1,1,2,1,South-West Montreal,by_appointment,0,0,0,0,0,0,0,0,96.99,72,0,0,5.49,-73.5767885,0,2263 rue Coursol,2,1,1,0,9,0,0,1,4,0,0,http://duproprio.com//home-for-sale-montreal-sud-ouest-quebec-en-293156,0,1,1,0,153.3,2012,1,0,0,325000,619000,590000,townhouse,west,,1875,,,,,
